"latitude","longitude","codePostal","nomVille","nomSport","ouvertureCovid"
47.52994,-3.138561,56510,"Saint-Pierre-Quiberon","",""
47.4832,-3.120165,56170,"Quiberon","",""
47.602935,-3.0500409,56340,"Carnac","Equitation",""
47.4879621,-3.103415,56170,"Quiberon","Catamaran#Voile",""
47.5689899,-3.079744,56340,"Carnac","Plongée",""
47.58674,-3.032292,56470,"La Trinité-sur-Mer","Ski nautique",""
47.65227,-3.07231,56400,"Ploemel","",""
47.67143,-2.994873,56400,"Auray","Randonnée pédestre",""
47.66649,-2.983767,56400,"Auray","",""
47.4877,-3.103372,56170,"Quiberon","Catamaran#Voile",""
47.65571,-3.2050493,56410,"Étel","Voile",""
47.58611,-3.036416,56470,"La Trinité-sur-Mer","Voile",""
47.3857412,-2.9501239,56170,"Île-d'Houat","Catamaran#Dériveur#Kayak de mer#Planche à voile#Stand up paddle",""
47.5871213,-3.0270212,56470,"La Trinité-sur-Mer","",""
47.6519959,-3.2020692,56410,"Étel","Natation",""
47.4858,-3.101886,56170,"Quiberon","Pêche en mer",""
47.6125,-3.16799,56410,"Erdeven","Stand up paddle",""
47.58889,-3.028924,56470,"La Trinité-sur-Mer","",""
47.5133618,-3.1269116,56510,"Saint-Pierre-Quiberon","Bouée tractée#Kite-surf#Stand up paddle",""
47.66118,-3.004082,56400,"Auray","",""
47.661184,-3.004082,56400,"Auray","",""
47.48518,-3.099982,56170,"Quiberon","",""
47.71972,-3.080678,56550,"Locoal-Mendon","",""
47.5694552,-2.943482,56740,"Locmariaquer","",""
47.58886,-3.029215,56470,"La Trinité-sur-Mer","Voile",""
47.7126499,-2.989655,56400,"Brech","Pêche",""
47.618,-3.073807,56340,"Carnac","",""
47.64103,-3.15767,56410,"Erdeven","Marche aquatique#Natation",""
47.55767,-3.136174,56510,"Saint-Pierre-Quiberon","Yoga / Bien-être",""
47.8651464,-2.4430804,56460,"Val d'Oust","","oui"
48.0074469,-2.2849804,56430,"Tréhorenteuc","",""
47.9326098,-2.4004778,56800,"Ploërmel","","oui"
48.3409045,-4.6152877,29280,"Plouzané","Bodyboard#Surf",""
47.8870969,-3.9812319,29170,"Fouesnant","Marche aquatique#Randonnée palmée",""
47.485395,-3.101226,56170,"Quiberon","Voile Croisière","oui"
47.840714,-4.345849,29120,"Plomeur","Surf",""
47.8430122,-4.2808426,29120,"Plomeur","Stand up paddle",""
47.8716397,-3.9158471,29900,"Concarneau","",""
48.517002,-3.588452,29650,"Guerlesquin","",""
47.993828,-4.105145,29000,"Quimper","",""
48.5608324,-3.1481915,22200,"Guingamp","",""
47.598121,-3.112386,56340,"Plouharnel","",""
47.8642741,-4.221773,29120,"Pont-L'Abbé","",""
48.1773486,-4.2805574,29550,"Plomodiern","Parapente",""
47.5139897,-3.1341216,56510,"Saint-Pierre-Quiberon","Stand up paddle#Surf","oui"
48.468637,-2.517322,22400,"Lamballe-Armor","",""
48.206418,-3.0465209,22530,"Caurel","Canoë kayak",""
48.2936225,-4.177765,29590,"Le Faou","Randonnée pédestre",""
47.8088181,-2.4756464,56460,"Sérent","",""
48.841945,-3.227984,22820,"Plougrescant","Pêche#Voile",""
48.8046235,-3.4414136,22700,"Perros-Guirec","Voile",""
47.5694756,-2.9434867,56740,"Locmariaquer","Voile","oui"
48.0991471,-4.3421502,29100,"Douarnenez","Voile","non"
48.0991471,-4.3421502,29100,"Douarnenez","Voile","non"
47.57182,-3.075565,56340,"Carnac","Voile","oui"
48.597527,-4.560871,29870,"Landéda","Kayak de mer",""
48.2753544,-4.5905754,29570,"Camaret-sur-Mer","Voile","non"
48.6292994,-4.5067441,29880,"Plouguerneau","Randonnée palmée",""
48.7104896,-3.8309669,29630,"Plougasnou","Randonnée palmée","oui"
48.624819,-2.055408,35800,"Dinard","Kayak de mer",""
48.6485877,-2.0198374,35400,"Saint-Malo","Voile",""
48.6293407,-4.5291067,29880,"Plouguerneau","Stand up paddle",""
47.8701538,-4.1168065,29120,"Combrit","Stand up paddle",""
47.567236,-2.9374699,56740,"Locmariaquer","","oui"
48.008879,-2.28777,56430,"Tréhorenteuc","Randonnée pédestre","oui"
47.9558899,-2.3814841,56800,"Ploërmel","","oui"
47.826687,-2.403052,56140,"Saint-Marcel","Geocaching#Jeu de piste",""
47.9556482,-4.0808295,29000,"Quimper","Stand up paddle#Wakeboard",""
48.3911325,-4.4853366,29200,"Brest","","oui"
47.7628512,-2.1298401,56200,"La Gacilly","",""
47.997542,-4.097899,29000,"Quimper","","oui"
48.0648739,-2.2055711,56430,"Concoret","Randonnée pédestre",""
47.8219276,-2.1392848,56910,"Carentoir","Geocaching#Randonnée pédestre",""
47.94132,-2.42309,56800,"Taupont","","oui"
47.9518228,-2.545001,56120,"Josselin","","oui"
47.91614,-2.56745,56120,"Guégon","","oui"
47.74574,-2.25329,56200,"Saint-Martin-sur-Oust","",""
47.94534,-2.42064,NA,"Taupont","Geocaching#Jeu de piste",""
47.9548828,-2.5476371,56120,"Josselin","Geocaching#Jeu de piste","oui"
47.8213512,-2.0920825,56910,"Carentoir","Geocaching#Randonnée pédestre",""
47.76516,-2.1312,56200,"La Gacilly","",""
47.7664561,-2.1342938,56200,"La Gacilly","",""
47.82289,-2.5057,56460,"Sérent","",""
47.8645016,-2.4356347,56460,"Val d'Oust","Cyclotourisme","oui"
47.9315306,-2.3963329,56800,"Ploërmel","Cyclotourisme#VTT","oui"
47.9535069,-2.5477953,56120,"Josselin","","oui"
48.01297,-2.32861,56430,"Néant-sur-Yvel","",""
47.571593,-3.0757473,56340,"Carnac","Kayak de mer#Planche à voile#Stand up paddle#Voile","oui"
47.50805,-3.12114,56510,"Saint-Pierre-Quiberon","",""
47.48243,-3.12008,56170,"Quiberon","",""
47.4859773,-3.1022174,56170,"Quiberon","",""
47.4889299,-3.1241131,56170,"Quiberon","",""
47.5069361,-3.1414001,56510,"Saint-Pierre-Quiberon","",""
47.4783791,-3.1244079,56170,"Quiberon","Catamaran#Voile",""
47.484435,-3.102266,56170,"Quiberon","Yoga / Bien-être",""
47.52302,-3.146,56510,"Saint-Pierre-Quiberon","Planche à voile",""
47.713408,-2.218552,NA,"Peillac","",""
47.584693,-3.077786,56340,"Carnac","",""
47.5563,-2.929165,56740,"Locmariaquer","Catamaran#Voile",""
47.71006,-3.11502,56550,"Locoal-Mendon","",""
47.6156935,-3.1573974,56410,"Erdeven","Bodyboard#Surf",""
47.6449417,-3.1463699,56410,"Erdeven","",""
47.6569523,-3.2071568,56410,"Étel","",""
47.6566486,-3.2074864,56550,"Belz","Canoë kayak#Randonnée pédestre",""
47.6116265,-3.1686926,56410,"Erdeven","Stand up paddle#Surf",""
47.4843909,-3.10134,56170,"Quiberon","Pêche en mer",""
47.559108,-3.136031,56510,"Saint-Pierre-Quiberon","Kayak de mer#Randonnée pédestre#Stand up paddle",""
47.6656246,-2.9862579,56400,"Auray","Voile Croisière",""
48.522506,-2.7650569,22000,"Saint-Brieuc","Canoë kayak#Kayak de mer",""
48.8164321,-3.4543941,22700,"Perros-Guirec","Bodyboard#Stand up paddle#Surf",""
48.7688639,-3.0229764,22500,"Paimpol","","oui"
48.7402008,-3.2660293,22450,"La Roche-Jaudy","Canoë kayak#Kayak de mer#Stand up paddle#Wave-ski","oui"
48.3464381,-3.2519531,22110,"Trémargat","Canoë kayak#Geocaching#Multisport#Pêche#Randonnée pédestre#Tir à l’arc",""
48.544512,-3.131867,22970,"Ploumagoar","VTT",""
48.2584556,-3.3786392,22110,"Glomel","Equitation",""
48.5563868,-3.1927299,22200,"Plouisy","Equitation#Randonnée équestre","oui"
48.6271365,-2.4148677,22240,"Plurien","Deltaplane#Equitation#Randonnée équestre","oui"
48.4660107,-2.0792228,22100,"Quévert","Equitation#Randonnée équestre",""
48.6077169,-2.2760581,22380,"Saint-Cast-le-Guildo","Equitation","oui"
48.4680273,-2.0344018,22100,"Taden","Equitation#Randonnée équestre",""
48.8006944,-3.4997891,22730,"Trégastel","Equitation#Randonnée équestre","oui"
48.5444269,-3.3970928,22810,"Belle-Isle-en-Terre","Pêche#Pêche en eau douce",""
48.6306253,-2.254579,22380,"Saint-Cast-le-Guildo","Plongée",""
48.6414583,-2.2456712,22380,"Saint-Cast-le-Guildo","",""
48.6407933,-2.2484029,22380,"Saint-Cast-le-Guildo","Voile","oui"
48.47617,-2.4756,22400,"Lamballe-Armor","Attelage#Equitation#Randonnée équestre","oui"
48.7849392,-3.2509619,22220,"Minihy-Tréguier","Equitation","oui"
48.3771986,-2.9752805,22800,"Saint-Bihy","Equitation#Randonnée équestre",""
48.1798615,-2.6270849,22210,"Plémet","Canoë kayak#Stand up paddle#VTT",""
48.832803,-3.486421,22700,"Perros-Guirec","Kayak de mer#Stand up paddle",""
48.4032144,-2.3201318,22270,"Jugon-les-Lacs","Aviron#Canoë kayak#Catamaran#Dériveur#Escalade#Randonnée pédestre#Stand up paddle#Tir à l’arc#Voile#VTT","oui"
48.1988505,-3.0137488,22530,"Guerlédan","Escalade",""
48.4609895,-2.0858548,22100,"Quévert","Plongée",""
48.606707,-2.1888503,22750,"Saint-Jacut-de-la-Mer","Catamaran#Char à voile#Dériveur#Fun board#Kayak de mer#Planche à voile#Stand up paddle#Voile","oui"
48.5592592,-3.1047588,22200,"Saint-Agathon","VTT",""
48.5608462,-3.1528614,22200,"Guingamp","Pêche#Pêche en eau douce",""
48.5215439,-2.2102953,22130,"Plancoët","Equitation#Randonnée équestre","oui"
48.444789,-2.101414,22100,"Trélivan","Baptême de l'air#Promenade aérienne",""
48.536642,-2.998706,22170,"Châtelaudren-Plouagat","Handball",""
48.543588,-2.967909,22170,"Châtelaudren-Plouagat","",""
48.8361789,-3.3153465,22710,"Penvénan","Catamaran#Dériveur#Kayak de mer#Planche à voile#Stand up paddle#Voile habitable","oui"
48.6405657,-2.2473692,22380,"Saint-Cast-le-Guildo","","oui"
48.8177227,-3.4609079,22700,"Perros-Guirec","Kayak de mer",""
48.482162,-2.1027416,22130,"Corseul","Equitation",""
48.6570435,-2.8579405,22410,"Saint-Quay-Portrieux","Tir à l’arc",""
48.7829898,-3.0439732,22500,"Paimpol","Voile#Voile habitable","oui"
48.6358721,-2.4733912,22430,"Erquy","Bouée tractée#Flyboard#Jetski","oui"
48.4563311,-2.8328418,22800,"Plaine-Haute","Canoë kayak",""
48.5442984,-2.7241274,22190,"Plérin","Kite-surf",""
48.455463,-2.0382493,22100,"Lanvallay","Aviron",""
48.649935,-2.367854,22240,"Fréhel","Pêche#Pêche en mer",""
48.6074653,-2.3625899,22240,"Fréhel","Equitation",""
48.6212746,-2.9976602,22290,"Lanvollon","VTT",""
48.6363686,-2.4739837,22430,"Erquy","Pêche#Pêche en mer","oui"
48.5216831,-2.2383403,22130,"Plancoët","",""
48.4319769,-2.2215557,22980,"Plélan-le-Petit","",""
48.7425092,-3.0293126,22500,"Kerfot","Catamaran#Dériveur#Kayak de mer#Voile",""
48.649916,-2.3485226,22240,"Fréhel","Tir",""
48.7690852,-3.1426564,22740,"Pleudaniel","Gymnastique","oui"
48.6972499,-3.162961,22260,"Pontrieux","Badminton",""
48.6997283,-3.1663942,22260,"Pontrieux","Escalade","non"
48.6549201,-2.3656524,22240,"Fréhel","Surf",""
48.6710107,-2.9206013,22580,"Plouha","Plongée",""
48.605925,-2.15097,22770,"Lancieux","Multisport",""
48.7798333,-3.048834,22500,"Paimpol","Multisport",""
48.7837923,-3.227702,22220,"Tréguier","","oui"
48.4085899,-2.321593,22270,"Jugon-les-Lacs","Randonnée pédestre",""
48.6751204,-3.1908549,22260,"Plouëc-du-Trieux","Randonnée pédestre",""
48.676727,-2.885471,22580,"Plouha","Equitation","oui"
48.6446793,-2.8272573,22410,"Saint-Quay-Portrieux","",""
48.6478577,-2.8232761,22410,"Saint-Quay-Portrieux","","oui"
48.1875174,-2.5909393,22210,"Plémet","Equitation",""
48.417795,-1.9700109,22630,"Les Champs-Géraux","Attelage",""
48.4625551,-3.4184615,22160,"La Chapelle-Neuve","Randonnée pédestre",""
48.6017754,-2.8279835,22520,"Binic-Étables-sur-Mer","Badminton#Beach Volley#Catamaran#Kayak de mer#Multisport#Pêche#Plongée#Stand up paddle",""
48.6013729,-2.8222493,22520,"Binic-Étables-sur-Mer","Catamaran#Voile",""
48.670988,-3.3955409,22140,"Tonquédec","Pêche#Pêche en eau douce#Pêche en mer","oui"
48.6953575,-3.154199,22260,"Pontrieux","Multisport",""
48.7361664,-3.0042137,22470,"Plouézec et Ploubazlanec","Marche aquatique","oui"
48.6318708,-2.4135425,22240,"Plurien","Cyclotourisme#VTT","oui"
48.5980595,-2.8340618,22520,"Binic-Étables-sur-Mer","","oui"
48.779782,-3.048828,22500,"Paimpol","",""
48.6244168,-2.8359467,22680,"Binic-Étables-sur-Mer","Tennis","oui"
48.779782,-3.048828,22500,"Paimpol","Aviron#Bouée tractée#Canoë kayak#Kayak de mer#Motonautisme#Pêche#Pêche en mer","oui"
48.778926,-3.0478006,22500,"Paimpol","",""
48.778926,-3.0478006,22500,"Paimpol","",""
48.649916,-2.3485226,22240,"Fréhel","Tir à l’arc",""
48.7270276,-2.9487523,22580,"Plouha","Marche aquatique",""
48.6017203,-2.8276672,22520,"Binic-Étables-sur-Mer","Jeu de piste",""
48.6016971,-2.8277515,22520,"Binic-Étables-sur-Mer","Jeu de piste",""
48.7888476,-3.4493067,22700,"Saint-Quay-Perros","Kite-surf","oui"
48.219961,-3.3895046,22110,"Glomel","Canoë kayak#Rafting",""
48.6502027,-3.4267063,22420,"Le Vieux-Marché","Pêche#Pêche en eau douce","oui"
48.5160064,-3.5722747,22780,"Plougras","Pêche#Pêche en eau douce",""
48.5672339,-3.5602853,22780,"Plounérin","Pêche#Pêche en eau douce","oui"
48.360082,-3.350101,22160,"Saint-Nicodème","Equitation#Randonnée équestre","oui"
48.4118684,-3.5531295,22160,"Plourac'h","Equitation",""
48.385729,-2.329692,22270,"Jugon-les-Lacs","Ski nautique#Téléski nautique",""
48.2266304,-3.1781618,22570,"Gouarec","Gymnastique",""
48.3990368,-2.3149428,22270,"Jugon-les-Lacs","Pêche#Pêche en eau douce",""
48.363531,-2.40023,22640,"Plénée-Jugon","Pêche#Pêche en eau douce",""
48.697024,-3.161691,22260,"Pontrieux","","oui"
48.7278135,-2.9493304,22470,"Plouézec","Marche aquatique",""
48.6016971,-2.8277515,22520,"Binic-Étables-sur-Mer","",""
48.6016971,-2.8277515,22520,"Binic-Étables-sur-Mer","",""
48.8092226,-3.448903,22700,"Perros-Guirec","Gymnastique","oui"
48.510598,-3.561707,22780,"Plougras","Randonnée pédestre","oui"
48.1714663,-3.3126354,22110,"Mellionnec","Randonnée équestre",""
48.5888739,-2.555883,22370,"Pléneuf-Val-André","Multisport","oui"
48.8593719,-3.2295929,22820,"Plougrescant","Equitation",""
48.7895581,-3.1005729,22740,"Lézardrieux","Pêche sous-marine#Plongée","oui"
48.61852,-2.430443,22240,"Plurien","Pêche#Pêche en eau douce",""
48.4997594,-2.6131225,22400,"Coëtmieux","Pêche#Pêche en eau douce",""
48.64056,-2.247412,22380,"Saint-Cast-le-Guildo","Pêche#Pêche en mer","oui"
48.4785712,-2.8032858,22440,"Ploufragan","",""
48.6016917,-2.8303683,22520,"Binic-Étables-sur-Mer","Jeu de piste",""
48.5565306,-2.7259993,22190,"Plérin","Canoë kayak#Kayak de mer#Stand up paddle",""
48.818128,-3.34616,22660,"Trévou-Tréguignec","Cyclotourisme#Randonnée pédestre","oui"
48.6024764,-2.4686489,22430,"Erquy","Kite-surf","oui"
48.6088886,-2.4947809,22430,"Erquy","Stand up paddle#Surf","oui"
48.23004,-2.37063,22230,"Saint-Launeuc","Equitation",""
48.206418,-3.0465209,22530,"Caurel","Stand up paddle",""
48.205763,-3.048191,22530,"Caurel","Canoë kayak#Stand up paddle",""
48.2087426,-3.0149017,22530,"Guerlédan","Canoë kayak#Stand up paddle",""
48.276882,-2.708154,22150,"Plouguenast-Langast","Canoë kayak#Stand up paddle#VTT",""
48.53496,-2.76794,22190,"Plérin","",""
48.6345856,-3.2980286,22140,"Bégard","Equitation",""
48.4361032,-2.7439959,22960,"Plédran","Randonnée pédestre",""
48.544512,-3.131867,22970,"Ploumagoar","Randonnée pédestre",""
48.49558,-2.00358,22100,"Saint-Samson-sur-Rance","Canoë kayak#Cyclotourisme#Stand up paddle",""
48.7826271,-3.0393652,22500,"Paimpol","Voile#Voile habitable","oui"
48.636172,-3.349555,22140,"Pluzunet","Quad","oui"
48.4031964,-2.9101616,22800,"Quintin","Jeu de piste",""
48.5959,-3.20353,22200,"Plouisy","Equitation",""
48.5624648,-3.5577989,22780,"Plounérin","Jeu de piste","oui"
48.562466,-3.5577979,22780,"Plounérin","Jeu de piste#Randonnée pédestre","oui"
48.568228,-3.4175804,22810,"Plounévez-Moëdec","Jeu de piste#Randonnée pédestre","oui"
48.6701943,-3.3967854,22140,"Tonquédec","Jeu de piste#Randonnée pédestre","oui"
48.569901,-2.213152,22130,"Créhen","Canoë kayak#Kayak de mer#Marche aquatique#Multisport#Randonnée pédestre",""
48.288475,-2.155687,22350,"Caulnes","Randonnée pédestre",""
48.627799,-2.3652923,22240,"Fréhel","",""
48.628222,-2.364998,22240,"Fréhel","",""
48.618159,-2.302089,22550,"Matignon","",""
48.5874979,-2.237731,22380,"Saint-Cast-le-Guildo","",""
48.5347281,-2.8548038,22440,"Trémuson","Baptême de l'air#ULM",""
48.1817701,-2.624619,22210,"Plémet","Canoë kayak",""
48.80177,-3.03237,22620,"Ploubazlanec","Jeu de piste","oui"
48.824648,-3.258208,22820,"Plougrescant","Randonnée pédestre","oui"
48.80349,-3.44342,22700,"Perros-Guirec","",""
48.8241497,-3.4717716,22700,"Perros-Guirec","Cyclotourisme",""
48.351154,-2.007568,22630,"Le Quiou","Jeu de piste",""
48.45338,-2.04441,22100,"Dinan","Gymnastique","oui"
48.7229161,-3.5791244,22300,"Trédrez-Locquémeau","Catamaran#Dériveur#Kayak de mer#Planche à voile#Stand up paddle#Voile#Wing foil",""
48.7861876,-3.2231238,22220,"Tréguier","Jeu de piste","oui"
48.83235,-3.4862,22700,"Perros-Guirec","",""
48.4748162,-3.5728216,22780,"Plougras","","oui"
48.45449,-2.05598,22100,"Dinan","",""
48.62814,-2.36443,22240,"Fréhel","Cyclotourisme",""
48.8164321,-3.4543941,22700,"Perros-Guirec","Voile",""
48.510693,-2.8264837,22440,"Ploufragan","Pêche#Pêche en eau douce",""
48.81594,-3.45837,22700,"Perros-Guirec","",""
48.797139,-3.4303179,22700,"Perros-Guirec","Bouée tractée#Kite-surf",""
48.74508,-3.07178,22860,"Plourivo","Jeu de piste","oui"
48.71093,-2.96577,22580,"Lanloup","Jeu de piste","oui"
48.47342,-3.18789,22390,"Bourbriac","Jeu de piste","oui"
48.42938,-3.33245,22160,"Bulat-Pestivien","Jeu de piste","oui"
48.46007,-3.5208,22160,"Lohuec","Jeu de piste","oui"
48.8243327,-3.4985683,22730,"Trégastel","Cyclotourisme#VTT",""
48.3017151,-2.012249,22830,"Plouasne","",""
48.71679,-3.32327,22450,"Quemperven","",""
48.7721564,-3.5779498,22560,"Trébeurden","Cyclotourisme","oui"
48.73062,-3.45983,22300,"Lannion","Cyclotourisme#VTT",""
48.8233382,-3.3552596,22660,"Trévou-Tréguignec","Marche aquatique","oui"
48.51129,-2.33099,22130,"Landébia","",""
48.62914,-2.46637,22430,"Erquy","Pêche#Pêche sous-marine#Plongée","oui"
48.81443,-3.44756,22700,"Perros-Guirec","Yoga / Bien-être",""
48.61512,-3.07594,22200,"Pommerit-le-Vicomte","Equitation","oui"
48.8364155,-3.4803967,22700,"Perros-Guirec","Plongée",""
48.6016971,-2.8277515,22520,"Binic-Étables-sur-Mer","",""
48.79106,-3.10783,22740,"Lézardrieux","",""
48.60442,-3.02133,22290,"Goudelin","Jeu de piste","oui"
48.8077507,-3.3738809,22660,"Trélévern","Natation",""
48.5117207,-2.762204,22000,"Saint-Brieuc","Jeu de piste",""
48.84583,-3.00058,22870,"Île-de-Bréhat","Tennis",""
48.81554,-3.44359,22700,"Perros-Guirec","Yoga / Bien-être",""
48.6091885,-3.4746159,22420,"Plouaret","Basket#Football#Handball#Multisport#Roller#Tennis","oui"
48.58961,-2.5526,22370,"Pléneuf-Val-André","VTT","oui"
48.7875439,-3.2307769,22220,"Tréguier","Jeu de piste",""
48.4847309,-2.2606,22130,"Bourseul","Yoga / Bien-être",""
48.58135,-2.54051,22370,"Pléneuf-Val-André","Randonnée pédestre",""
48.50955,-2.77273,22000,"Saint-Brieuc","",""
48.5102423,-2.7061332,22360,"Langueux","",""
48.67538,-2.93152,22580,"Plouha","Natation","oui"
48.6751218,-2.9092311,22580,"Plouha","Equitation","oui"
48.611355,-3.473584,22420,"Plouaret","Pêche#Pêche en eau douce",""
48.4948862,-2.73863,22950,"Trégueux","",""
48.3122874,-2.781708,22150,"Plœuc-L'Hermitage","Equitation#Randonnée équestre",""
48.757,-3.47053,22300,"Lannion","ULM",""
48.36197,-2.07729,22630,"Saint-Juvat","",""
48.37435,-2.24856,22270,"Mégrit","",""
48.5117505,-2.7621726,22000,"Saint-Brieuc","",""
48.5116688,-2.7621619,22000,"Saint-Brieuc","",""
48.5751819,-3.1749734,22200,"Grâces","Tir",""
48.19807,-2.98733,22530,"Guerlédan","",""
48.821,-3.47627,22700,"Perros-Guirec","",""
48.59066,-2.55343,22370,"Pléneuf-Val-André","",""
48.59066,-2.55343,22370,"Pléneuf-Val-André","",""
48.59066,-2.55343,22370,"Pléneuf-Val-André","",""
48.8178985,-3.4607386,22700,"Perros-Guirec","Voile",""
48.81822,-3.47375,22700,"Perros-Guirec","",""
48.233913,-2.3749159,22230,"Saint-Launeuc","",""
48.8177652,-3.4448143,22700,"Perros-Guirec","",""
48.20258,-2.98309,22530,"Guerlédan","",""
48.4791432,-2.6776192,22120,"Yffiniac","",""
48.82035,-3.35233,22660,"Trévou-Tréguignec","Stand up paddle#Surf",""
48.70423,-3.107395,22260,"Quemper-Guézennec","Attelage",""
48.670054,-2.8897369,22580,"Plouha","Equitation",""
48.5117505,-2.7621726,22000,"Saint-Brieuc","",""
48.73212,-3.45839,22300,"Lannion","Gymnastique",""
48.45524,-2.028408,22100,"Lanvallay","Escalade",""
48.51572,-2.7639,22000,"Saint-Brieuc","Randonnée pédestre",""
48.323796,-2.737669,22150,"Plœuc-L'Hermitage","",""
48.7693,-3.03975,22500,"Paimpol","Cyclotourisme",""
48.66297,-3.62451,22310,"Plestin-les-Grèves","Gymnastique#Yoga / Bien-être",""
48.4535578,-2.0601462,22100,"Dinan","",""
48.6792103,-3.5226958,NA,"","Randonnée pédestre",""
48.5779744,-2.5662171,22370,"Pléneuf-Val-André","Pêche en mer",""
48.597982,-2.1888031,22750,"Saint-Jacut-de-la-Mer","",""
48.54871,-2.0583,22490,"Pleslin-Trigavou","Yoga / Bien-être",""
48.656082,-4.1737639,29430,"Plouescat","Ping-pong",""
48.5701566,-4.5961355,29830,"Saint-Pabu","Plongée",""
47.8965596,-3.9737405,29940,"La Forêt-Fouesnant","Catamaran#Kayak de mer#Planche à voile#Stand up paddle#Voile","oui"
47.8372199,-4.3457081,29120,"Plomeur","Bodyboard#Char à voile#Stand up paddle#Surf","oui"
48.7104896,-3.8309669,29630,"Plougasnou","Plongée",""
47.8370012,-4.176542,29750,"Loctudy","Flyboard#Jetski#Motonautisme#Scooter de mer","oui"
47.957898,-4.382799,29710,"Pouldreuzic","Voile","oui"
48.391613,-4.435704,29200,"Brest","Voile",""
48.597614,-4.5612144,29870,"Landéda","Plongée","oui"
47.9386067,-4.4000682,29710,"Pouldreuzic","Char à voile","oui"
48.3486068,-4.3286331,29470,"Loperhet","Canoë kayak#Catamaran#Dériveur#Fun board#Kayak de mer#Planche à voile#Stand up paddle#Voile",""
48.319652,-4.2843509,29460,"Logonna-Daoulas","Canoë kayak#Fun board#Planche à voile#Stand up paddle#Voile","oui"
47.8702079,-4.1152567,29120,"Combrit","Canoë kayak#Fun board#Kayak de mer#Planche à voile#Stand up paddle#Voile","oui"
48.0954058,-4.3286487,29100,"Douarnenez","Canoë kayak","non"
48.4569608,-5.0960254,29242,"Ouessant","Canoë kayak#Planche à voile#Voile",""
48.2236719,-4.5006608,29160,"Crozon","Canoë kayak#Marche aquatique#Stand up paddle",""
48.338763,-4.377116,29470,"Plougastel-Daoulas","Aviron",""
48.4418518,-4.7759366,29810,"Plouarzel","Dériveur#Voile",""
48.6762836,-3.8514375,29630,"Plougasnou","Kayak de mer#Marche aquatique#Planche à voile#Stand up paddle#Voile",""
48.0965791,-4.3405044,29100,"Douarnenez","Aviron","non"
47.7691553,-3.5627715,29360,"Clohars-Carnoët","Bodyboard#Stand up paddle#Surf",""
47.855264,-3.8551974,29910,"Trégunc","Aviron","oui"
48.5306659,-4.747978,29840,"Landunvez","Surf",""
47.8059,-3.71692,29350,"Moëlan-sur-Mer","Canoë kayak#Catamaran#Dériveur#Fun board#Kayak de mer#Planche à voile#Stand up paddle#Voile",""
47.8667878,-3.5428597,29300,"Quimperlé","Canoë kayak#Kayak de mer#Stand up paddle",""
48.2753544,-4.5905754,29570,"Camaret-sur-Mer","Catamaran#Kayak de mer#Planche à voile#Plongée#Stand up paddle#Surf#Voile#Voile habitable","oui"
48.272947,-4.426493,29160,"Lanvéoc","Randonnée équestre","oui"
48.0994876,-4.3403757,29100,"Douarnenez","Planche à voile#Voile","oui"
47.8407212,-4.3460104,29120,"Plomeur","Bodyboard#Surf",""
48.5572693,-4.7057252,29830,"Ploudalmézeau","Catamaran#Kayak de mer#Planche à voile#Stand up paddle",""
47.8831224,-4.1634283,29120,"Combrit","","oui"
48.6688505,-3.9076511,29660,"Carantec","Plongée",""
48.68582,-3.973627,29250,"Saint-Pol-de-Léon","",""
48.239029,-4.543538,29160,"Crozon","Surf",""
48.391613,-4.435704,29200,"Brest","Voile",""
48.555259,-4.550793,29870,"Tréglonou","Equitation",""
48.277772,-3.601501,29270,"Carhaix-Plouguer","Equitation#Randonnée équestre",""
48.66977,-3.908273,29660,"Carantec","Voile",""
48.2900764,-3.5695614,29270,"Carhaix-Plouguer","Equitation",""
47.7948164,-4.2847054,29730,"Guilvinec","Cyclotourisme#VTT","oui"
48.6646639,-3.8545274,29252,"Morlaix","Plongée",""
48.5808154,-3.8144579,29600,"Morlaix","Equitation",""
48.6682599,-3.9080698,29660,"Carantec","Stand up paddle",""
48.0458732,-4.7054532,29770,"Plogoff","Stand up paddle#Surf","oui"
48.565121,-4.65311,29830,"Lampaul-Ploudalmézeau","Char à voile",""
48.4115538,-4.4944281,29200,"Brest","Voile",""
47.8733089,-3.9171505,29120,"Combrit","Voile",""
48.02047,-4.5365,29770,"Audierne","Voile",""
48.1021725,-4.3527317,29100,"Douarnenez","Kayak de mer#Natation#Planche à voile#Voile","oui"
48.2754908,-4.5905876,29570,"Camaret-sur-Mer","",""
47.8461381,-3.5404875,29300,"Quimperlé","Equitation",""
47.872586,-3.547546,29300,"Quimperlé","VTT",""
47.872586,-3.547546,29300,"Quimperlé","Randonnée pédestre",""
47.845458,-3.6960196,29340,"Riec-sur-Bélon","",""
47.8016253,-3.7202453,29350,"Moëlan-sur-Mer","Kayak de mer#Planche à voile#Voile",""
47.8139254,-3.6304879,29350,"Moëlan-sur-Mer","Cyclotourisme#VTT",""
47.8122466,-3.7055253,29350,"Moëlan-sur-Mer","Pêche",""
47.8732856,-3.5451739,29300,"Quimperlé","",""
48.07929,-4.298046,29100,"Douarnenez","","oui"
48.6805766,-3.7711215,29630,"Saint-Jean-du-Doigt","Attelage#Equitation#Randonnée équestre",""
48.276532,-4.596749,29570,"Camaret-sur-Mer","",""
48.3873045,-4.4853581,29200,"Brest","Arts martiaux","oui"
48.390394,-4.486076,29200,"Brest","Plongée",""
48.3397588,-4.7001704,29217,"Plougonvelin","Marche aquatique","oui"
47.8556247,-3.9006638,29900,"Concarneau","Aviron",""
48.6949042,-3.7961887,29630,"Plougasnou","Tennis",""
48.40489,-3.95677,29450,"Commana","Pêche#Pêche en eau douce",""
48.6871906,-3.6797037,29241,"Locquirec","Stand up paddle#Surf","oui"
48.445629,-3.835046,29410,"Plounéour-Ménez","Cyclotourisme#VTT",""
48.6692554,-3.9093089,29660,"Carantec","Kayak de mer",""
48.6692554,-3.9093089,29660,"Carantec","Voile",""
47.8988974,-3.9764388,29940,"La Forêt-Fouesnant","","oui"
47.8983505,-3.9666998,29940,"La Forêt-Fouesnant","VTT","oui"
47.91094,-3.9792105,29940,"La Forêt-Fouesnant","VTT","oui"
47.8377089,-4.3314514,29120,"Plomeur","Surf","oui"
48.093228,-4.328619,29100,"Douarnenez","Randonnée pédestre","oui"
47.8731768,-3.9174812,29900,"Concarneau","","oui"
48.3803395,-4.4902034,29200,"Brest","Voile",""
47.8327187,-4.3268253,29120,"Plomeur","Equitation","oui"
47.971963,-4.0954247,29000,"Quimper","Natation",""
47.8641493,-4.2098899,29120,"Pont-L'Abbé","Tennis",""
48.7109143,-3.8304948,29630,"Plougasnou","Stand up paddle",""
48.3338405,-4.4081361,29470,"Plougastel-Daoulas","Canoë kayak#Kayak de mer#Plongée#Stand up paddle#Voile#Voile habitable","oui"
48.4695147,-5.0556908,29242,"Ouessant","Cyclotourisme",""
47.9886498,-4.1121231,29000,"Quimper","",""
47.844943,-3.0144205,56330,"Camors","Parcours dans les arbres",""
47.8762101,-3.9011495,29900,"Concarneau","Voile",""
48.3634723,-3.7454365,29690,"Huelgoat","",""
48.364725,-3.745646,29690,"Huelgoat","",""
48.5821172,-3.8331789,29600,"Morlaix","Voile",""
48.7252506,-3.9812694,29680,"Roscoff","Voile","oui"
48.675436,-3.8496009,29252,"Plouezoc'h","Voile",""
48.629436,-3.8472113,29252,"Plouezoc'h","Kayak de mer#Stand up paddle","oui"
48.363474,-3.7475246,29690,"Huelgoat","",""
47.9001826,-3.9716274,29350,"Moëlan-sur-Mer","Voile#Voile habitable","oui"
47.916953,-4.363549,29720,"Plovan","Bodyboard#Stand up paddle#Surf","oui"
47.8811421,-4.3604373,29720,"Tréguennec","Bodyboard#Surf","oui"
48.6692554,-3.9093089,29660,"Carantec","Plongée",""
48.6930452,-3.6486303,29241,"Locquirec","Bodyboard#Stand up paddle#Surf","oui"
48.578437,-3.8486556,29600,"Saint-Martin-des-Champs","Randonnée pédestre",""
47.7971311,-4.2151193,29740,"Plobannalec-Lesconil","Voile",""
48.2248588,-4.5048446,29160,"Crozon","",""
48.245929,-4.4898831,29160,"Crozon","",""
48.2240867,-4.5259131,29160,"Crozon","Bodyboard#Stand up paddle#Surf",""
48.2241693,-4.5023174,29160,"Crozon","",""
47.7717343,-3.6097079,29360,"Clohars-Carnoët","Voile",""
48.5346423,-3.9205526,29410,"Saint-Thégonnec Loc-Eguiner","Equitation",""
48.6920663,-3.6479087,29241,"Locquirec","Cyclotourisme#VTT","non"
47.9413868,-3.8970653,29140,"Saint-Yvi","Equitation","oui"
48.3678463,-4.7661656,29217,"Le Conquet","Bodyboard#Surf","oui"
48.346514,-4.7038808,29217,"Plougonvelin","Aviron#Kayak de mer#Planche à voile#Stand up paddle#Voile","oui"
47.866915,-4.222298,29120,"Pont-L'Abbé","Marche aquatique#Randonnée pédestre#Stand up paddle","oui"
48.017254,-4.474441,29780,"Plouhinec","Bodyboard#Surf","oui"
48.3763368,-4.543084,29200,"Brest","Voile",""
48.667801,-3.906705,29660,"Carantec","Voile",""
47.83044,-4.168061,29750,"Loctudy","Gymnastique#Marche aquatique#Natation",""
48.3916975,-4.4871267,29200,"Brest","Escalade","oui"
47.949852,-4.3898,29710,"Pouldreuzic","Equitation#Randonnée équestre","oui"
47.92348,-4.26214,NA,"Plonéour-Lanvern","Equitation","oui"
48.3390842,-3.9423401,29190,"Brasparts","Attelage#Randonnée équestre",""
48.545153,-4.6504193,29830,"Lampaul-Ploudalmézeau","","oui"
48.57286,-4.51106,29870,"Lannilis","Gymnastique#Multisport#Yoga / Bien-être",""
47.8600888,-4.1656374,29120,"Combrit","Equitation#Randonnée équestre",""
47.8668931,-4.2219915,29120,"Pont-L'Abbé","","oui"
48.2774795,-4.5969919,29570,"Camaret-sur-Mer","",""
48.2766025,-4.596631,29570,"Camaret-sur-Mer","",""
48.2761895,-4.5959537,29570,"Camaret-sur-Mer","",""
48.2763537,-4.5971338,29570,"Camaret-sur-Mer","",""
48.276532,-4.596749,29570,"Camaret-sur-Mer","",""
47.968836,-4.221719,29710,"Plogastel-Saint-Germain","","oui"
48.3006373,-4.2251948,29590,"Rosnoën","Kayak de mer#Randonnée pédestre#VTT",""
48.3218482,-4.3248027,29460,"Logonna-Daoulas","Canoë kayak#Catamaran#Planche à voile#Stand up paddle",""
48.2797215,-4.2706422,29470,"Plougastel-Daoulas","Voile",""
48.0193637,-4.5312516,29780,"Plouhinec","Voile","oui"
48.0867789,-4.3314621,29100,"Douarnenez","","oui"
48.335292,-4.368667,29470,"Plougastel-Daoulas","Voile",""
48.333208,-4.40811,29470,"Plougastel-Daoulas","Voile",""
48.2800417,-4.5916565,29570,"Camaret-sur-Mer","",""
47.8106024,-4.331726,29760,"Penmarch","",""
48.0990675,-4.343598,29100,"Douarnenez","Kayak de mer#Stand up paddle#Surf#Voile","non"
48.6318117,-4.5158991,29880,"Plouguerneau","",""
48.597527,-4.560871,29870,"Landéda","",""
47.7981778,-4.213076,29740,"Plobannalec-Lesconil","",""
48.4071138,-4.3241176,29470,"Loperhet","Equitation",""
48.471627,-4.152747,29800,"Ploudiry","Equitation",""
48.08204,-4.4984759,29790,"Beuzec-Cap-Sizun","",""
47.9765894,-4.0827465,29000,"Quimper","Pêche",""
48.0306216,-4.6799185,29770,"Plogoff","Equitation#Randonnée équestre",""
47.825534,-3.7624701,29920,"Névez","Equitation#Randonnée équestre",""
47.8550481,-3.9770576,29170,"Fouesnant","Natation#Plongée","oui"
47.951955,-3.9897927,29170,"Saint-Évarzec","Equitation","oui"
47.8530671,-3.7358229,29930,"Pont-Aven","Equitation#Randonnée équestre",""
47.872807,-3.799766,29140,"Melgven","Equitation#Randonnée équestre",""
47.8895169,-3.9768752,29170,"Fouesnant","Marche aquatique#Multisport#Stand up paddle","oui"
47.83044,-4.168061,29750,"Loctudy","Pêche#Pêche en mer","oui"
47.8013822,-3.7455724,29920,"Névez","VTT",""
47.8736866,-4.1053256,29950,"Bénodet","Cyclotourisme#VTT",""
47.8963942,-3.9675626,29940,"La Forêt-Fouesnant","Marche aquatique#Yoga / Bien-être","oui"
47.8512933,-4.3142649,29120,"Plomeur","","oui"
48.0192354,-4.4898013,29780,"Plouhinec","ULM",""
47.840881,-4.326917,29120,"Plomeur","Surf",""
47.870671,-4.05769,29170,"Fouesnant","Equitation",""
47.989167,-3.944134,29370,"Elliant","",""
48.321038,-4.228131,29460,"Hôpital-camfrout","Equitation",""
47.9205354,-4.0311362,29170,"Fouesnant","","oui"
47.8813147,-4.3603085,29720,"Tréguennec","Surf","oui"
47.861183,-4.240414,29120,"Pont-L'Abbé","Cyclotourisme#VTT","oui"
48.405706,-3.688976,29690,"Berrien","",""
48.0525354,-3.6634607,29390,"Scaër","Parachutisme",""
48.3913767,-4.4340207,29200,"Brest","Voile",""
48.0193788,-4.5305331,29780,"Plouhinec","Surf","oui"
47.8095886,-4.3712796,29760,"Penmarch","Kite-surf#Stand up paddle","oui"
47.87734,-4.218275,29120,"Pont-L'Abbé","Canoë kayak#Dériveur#Flyboard#Kayak de mer#Marche aquatique#Planche à voile#Stand up paddle#Voile","oui"
48.2755653,-3.5759725,29270,"Carhaix-Plouguer","Randonnée pédestre",""
48.3907074,-4.4341698,29200,"Brest","Voile","oui"
47.807191,-4.261599,29730,"Treffiagat","","oui"
48.219985,-4.234034,29150,"Dinéault","","oui"
48.6694117,-3.9078258,29660,"Carantec","Marche aquatique",""
48.629465,-4.003252,29420,"Plouénan","Tennis",""
48.5360292,-4.0551043,29400,"Plougourvest","Equitation","oui"
48.246306,-4.489568,29160,"Crozon","Surf",""
47.8523936,-4.3484398,29120,"Saint-Jean-Trolimon","Surf","oui"
47.8990801,-3.9735854,29940,"La Forêt-Fouesnant","","oui"
47.887587,-3.557163,29300,"Mellac","",""
47.8050959,-3.7409148,29920,"Névez","Canoë kayak#Kayak de mer#Stand up paddle",""
47.81858,-4.377628,29760,"Penmarch","Cyclotourisme","oui"
48.097893,-4.340216,29100,"Douarnenez","Cyclotourisme#VTT","oui"
48.27098,-3.59354,29270,"Carhaix-Plouguer","Cyclotourisme",""
48.0127079,-4.4890122,29780,"Plouhinec","Pilotage aérien","oui"
48.0843453,-4.319922,29100,"Douarnenez","Cyclotourisme#Randonnée pédestre","oui"
48.246306,-4.489568,29160,"Crozon","Randonnée pédestre",""
48.096293,-4.344295,29100,"Douarnenez","Voile","oui"
48.47657,-4.758078,29840,"Lanildut","",""
48.39,-4.485147,29200,"Brest","Jeu de piste","oui"
48.4092134,-4.5156994,29200,"Brest","Voile",""
48.424672,-4.558263,29820,"Guilers","",""
48.24506,-4.48143,29160,"Crozon","Cyclotourisme",""
48.24561,-4.48861,29160,"Crozon","Cyclotourisme",""
48.27456,-4.59608,29570,"Camaret-sur-Mer","Bodyboard#Kayak de mer#Scooter de mer#Stand up paddle",""
48.0899971,-4.3302229,29100,"Douarnenez","Bodyboard#Surf",""
48.35914,-4.26044,29460,"Daoulas","Stand up paddle","oui"
48.3391371,-4.7001975,29217,"Plougonvelin","Pêche#Pêche en eau douce#Pêche en mer","oui"
47.8815807,-4.1149029,29950,"Bénodet","Voile","oui"
47.7981192,-4.2142048,29740,"Plobannalec-Lesconil","","oui"
48.09242,-4.33041,29100,"Douarnenez","Pêche#Randonnée pédestre","non"
48.3983485,-4.4795465,29200,"Brest","Wing foil",""
48.39043,-4.48658,29200,"Brest","Jeu de piste","oui"
47.79718,-3.58695,29360,"Clohars-Carnoët","Randonnée pédestre",""
47.82694,-3.67042,29340,"Riec-sur-Bélon","Canoë kayak#Kayak de mer",""
48.5701845,-4.5958112,29830,"Saint-Pabu","Kayak de mer","oui"
48.0410058,-4.4861734,29790,"Pont-Croix","",""
48.39067,-4.4858,29200,"Brest","",""
48.38694,-4.49192,29200,"Brest","",""
48.2097579,-4.3685196,29560,"Telgruc-sur-Mer","Catamaran#Char à voile#Escalade#Kayak de mer#Surf#Voile",""
48.391613,-4.435704,29200,"Brest","Voile",""
48.08554,-4.33113,29100,"Douarnenez","",""
48.3622,-4.70091,29217,"Plougonvelin","Cyclotourisme#VTT","oui"
47.8946,-4.01156,29170,"Fouesnant","Pêche#Randonnée pédestre",""
47.903,-4.28264,29720,"Plonéour-Lanvern","Cyclotourisme#VTT","oui"
48.4387807,-4.6299901,29290,"Saint-Renan","Cyclotourisme",""
48.64462,-4.36649,29890,"Kerlouan","Marche aquatique#Natation#Plongée",""
48.6871906,-3.6797037,29241,"Locquirec","Surf","oui"
48.3591662,-4.7601244,29217,"Le Conquet","",""
48.38097,-4.62235,29280,"Plouzané","Cyclotourisme",""
48.09247,-4.3632,29100,"Douarnenez","Equitation","oui"
48.285,-4.51101,29160,"Crozon","Pêche#Pêche en mer",""
48.5548594,-4.6618725,29830,"Lampaul-Ploudalmézeau","Pêche sous-marine#Randonnée pédestre#Surf#Yoga / Bien-être",""
48.24127,-4.54431,29160,"Crozon","Char à voile",""
48.27568,-4.59763,29570,"Camaret-sur-Mer","Randonnée pédestre#Surf",""
48.1917236,-3.9847903,29190,"Pleyben","Cyclotourisme",""
48.10195,-4.35291,29100,"Douarnenez","Marche aquatique#Stand up paddle#Surf",""
48.6709187,-4.35052,29890,"Kerlouan","",""
48.3370298,-4.729439,29217,"Plougonvelin","Yoga / Bien-être",""
47.866915,-4.222298,29120,"Pont-L'Abbé","Pêche","oui"
48.6595038,-4.3003114,29890,"Plounéour-Brignogan-Plages","Cyclotourisme",""
48.4303136,-4.783641,29810,"Plouarzel","Randonnée pédestre",""
48.59325,-4.56316,29870,"Landéda","Plongée",""
48.60684,-4.50648,29880,"Plouguerneau","Cyclotourisme#VTT",""
48.3312409,-4.7692412,29217,"Plougonvelin","",""
48.36362,-3.74807,29690,"Huelgoat","",""
48.4568052,-4.7118475,29810,"Plouarzel","Jeu de piste",""
48.526249,-3.843227,29410,"Pleyber-Christ","Randonnée équestre",""
48.648412,-4.2685432,29430,"Plounévez-Lochrist","Voile","oui"
48.2795049,-4.5976824,29570,"Camaret-sur-Mer","Voile#Voile habitable","oui"
48.59771,-4.56135,29870,"Landéda","Voile",""
48.6178,-4.56133,29880,"Plouguerneau","Quad#VTT",""
48.4343,-4.62138,29290,"Saint-Renan","",""
48.22587,-4.52727,29160,"Crozon","Bodyboard#Surf#VTT",""
48.44317,-4.65413,29810,"Plouarzel","Yoga / Bien-être",""
48.50926,-4.75917,29840,"Porspoder","Yoga / Bien-être",""
48.34541,-4.71448,29217,"Plougonvelin","",""
48.403196,-4.723239,29810,"Ploumoguer","",""
48.60686,-4.50773,29880,"Plouguerneau","Aviron",""
48.514455,-4.7638299,29840,"Porspoder","Yoga / Bien-être",""
48.50274,-4.42603,29860,"Plabennec","Gymnastique#Multisport",""
48.4012202,-4.492127,29200,"BREST","Yoga / Bien-être",""
48.37724,-4.60123,29280,"Plouzané","",""
48.3608,-4.77117,29217,"Le Conquet","",""
48.3608,-4.77117,29217,"Le Conquet","Canoë kayak#Kayak de mer#Marche aquatique#Natation",""
47.8186107,-4.1892201,29750,"Loctudy","Cyclotourisme","oui"
47.87617,-3.90304,29900,"Concarneau","",""
47.85823,-3.89547,29900,"Concarneau","Tennis",""
47.906455,-3.834762,29140,"Melgven","",""
47.87254,-3.91769,29900,"Concarneau","Randonnée pédestre",""
47.87254,-3.91769,29900,"Concarneau","Cyclotourisme",""
48.3747,-4.64382,29280,"Locmaria-Plouzané","Randonnée pédestre#Yoga / Bien-être",""
47.81473,-4.25106,29740,"Plobannalec-Lesconil","Marche aquatique#Randonnée pédestre#Yoga / Bien-être","oui"
48.018395,-4.531971,29780,"Plouhinec","Canoë kayak#Kayak de mer",""
48.58374,-4.36872,29260,"Le Folgoët","",""
47.80104,-3.69509,29350,"Moëlan-sur-Mer","Kayak de mer",""
47.8834745,-4.1550909,29120,"Combrit","Yoga / Bien-être",""
47.868985,-3.914523,29900,"Concarneau","Plongée#Stand up paddle#Voile","oui"
47.90494,-3.47436,29310,"Locunolé","Attelage#Equitation#Randonnée équestre",""
47.801166,-3.742948,29920,"Névez","Tennis",""
47.79712,-3.77399,29920,"Névez","Cyclotourisme",""
47.87742,-3.91489,29900,"Concarneau","Cyclotourisme",""
48.606857,-3.575815,22310,"Plufur","Cyclotourisme",""
48.6692554,-3.9093089,29660,"Carantec","Marche aquatique#Stand up paddle#Yoga / Bien-être","oui"
48.62357,-4.55705,29880,"Plouguerneau","Kayak de mer",""
48.04248,-4.48929,29790,"Pont-Croix","",""
48.0170164,-4.4913704,29780,"Plouhinec","Arts martiaux",""
48.3807,-4.49356,29200,"Brest","VTT",""
48.6644439,-3.6415977,22310,"Plestin les Grèves","",""
48.3742545,-4.6494411,29280,"Locmaria-Plouzané","Cyclotourisme",""
48.392133,-4.4343761,29200,"Brest","Kayak de mer",""
48.6866541,-3.6530399,29241,"Locquirec","Voile#Voile habitable",""
47.907898,-3.9817659,29940,"La Forêt-Fouesnant","VTT",""
48.27642,-4.59558,29570,"Camaret-sur-Mer","Randonnée pédestre",""
48.09494,-4.32635,29100,"Douarnenez","",""
48.72216,-3.96558,29680,"Roscoff","",""
48.59397,-4.55668,29870,"Landéda","Bouée tractée#Catamaran#Dériveur#Motonautisme#Pêche#Pêche en mer#Planche à voile#Ski nautique#Voile#Voile habitable","oui"
48.61649,-4.51019,29880,"Plouguerneau","Cyclotourisme#Jeu de piste#VTT",""
48.42776,-4.46051,29850,"Gouesnou","Escalade",""
47.866915,-4.222298,29120,"Pont-L'Abbé","Yoga / Bien-être","oui"
48.0741125,-4.5294057,29790,"Beuzec-Cap-Sizun","",""
48.62821,-4.53395,29880,"Plouguerneau","Stand up paddle",""
48.59613,-4.56226,29870,"Landéda","Dériveur#Voile",""
47.90869,-3.97878,29940,"La Forêt-Fouesnant","Gymnastique",""
48.1383459,-1.9590434,35160,"Montfort-sur-Meu","",""
48.1371031,-1.9558829,35160,"Montfort-sur-Meu","",""
48.1262667,-2.0387423,35750,"Iffendic","",""
47.8382477,-1.6805919,35470,"Bain-de-Bretagne","Canoë kayak#Planche à voile#Stand up paddle#Voile","oui"
48.6705269,-1.8554952,35260,"Cancale","Voile","oui"
48.2951849,-1.8913532,35190,"Cardroc","Attelage#Centres équestres et poneys clubs#Equitation#Randonnée équestre","oui"
48.109406,-1.405353,35220,"Châteaubourg","Centres équestres et poneys clubs#Equitation",""
48.5724383,-1.7666476,35120,"Mont-Dol","Beach Volley#Jeu de piste#Multisport#Tir#Tir à l’arc#VTT","oui"
48.6371646,-2.0567901,35800,"Dinard","Fun board#Kayak de mer#Planche à voile#Stand up paddle#Voile",""
48.3677108,-1.2010798,35300,"Fougères","Equitation",""
47.988546,-1.9405248,35580,"Goven","Parachutisme",""
47.9189859,-1.862419,35580,"Guignen","Equitation",""
48.0906488,-1.9999774,35750,"Iffendic","Centres équestres et poneys clubs#Equitation#Randonnée équestre",""
48.1058205,-2.0346513,35750,"Iffendic","Centres équestres et poneys clubs#Equitation#Randonnée équestre",""
48.1374143,-1.9647461,35160,"Montfort-sur-Meu","Canoë kayak#Stand up paddle",""
48.0178314,-2.1735763,35380,"Paimpont","Canoë kayak#Kayak de mer#Stand up paddle",""
47.650742,-2.083938,35600,"Redon","Plongée",""
47.6528742,-2.0867962,35600,"Redon","Hydrospeed#Pêche sous-marine#Plongée","oui"
48.3790123,-1.8824921,35190,"Saint-Domineuc","Canoë kayak","oui"
48.26324,-1.8167552,35630,"Saint-Gondran","Centres équestres et poneys clubs#Equitation#Randonnée équestre",""
48.6243425,-2.0124721,35400,"Saint-Malo","Centres équestres et poneys clubs#Equitation","oui"
48.6319149,-1.9815769,35400,"Saint-Malo","Kite-surf",""
48.6589849,-1.9981803,35400,"Saint-Malo","Bodyboard#Bouée tractée#Catamaran#Char à voile#Planche à voile#Voile","oui"
48.6406737,-1.8741655,35350,"Saint-Méloir-des-Ondes","Equitation","oui"
48.322035,-1.392939,35140,"Saint-Ouen-des-Alleux","Equitation","oui"
48.6362755,-2.1065505,35800,"Saint-Lunaire","Canoë kayak#Catamaran#Dériveur#Fun board#Kayak de mer#Planche à voile#Stand up paddle#Voile",""
48.6245127,-2.1441149,35800,"Saint-Briac-sur-Mer","Voile",""
48.619354,-2.132691,35800,"Saint-Briac-sur-Mer","",""
48.1274265,-2.0555099,35750,"Iffendic","",""
48.6786882,-1.872097,35260,"Cancale","",""
48.273408,-1.2006357,35253,"Parcé","Geocaching",""
47.6851056,-2.1091869,35600,"Bains-sur-Oust","Geocaching",""
48.0484449,-1.5020107,35410,"Châteaugiron","Geocaching",""
48.5897391,-2.0758217,35730,"Pleurtuit","Baptême de l'air#Pilotage aérien",""
48.263171,-1.606188,35250,"Saint-Aubin-d'Aubigné","Centres équestres et poneys clubs",""
48.075418,-2.046666,35750,"Iffendic","Geocaching",""
48.6242872,-2.1369686,35800,"Saint-Briac-sur-Mer","Geocaching","oui"
48.634761,-2.108016,35800,"Saint-Lunaire","Geocaching","oui"
48.1292959,-2.033727,35750,"Iffendic","Pêche","oui"
48.602092,-1.774314,35960,"Le Vivier-sur-Mer","Randonnée pédestre","oui"
48.682025,-1.869881,35260,"Cancale","Equitation","oui"
48.12308,-1.2118,35500,"Vitré","Geocaching",""
48.288025,-1.8674899,35630,"Les Iffs","Geocaching",""
48.099526,-2.207678,35290,"Gaël","Geocaching","oui"
48.410006,-1.7524989,35270,"Combourg","Geocaching",""
48.619354,-2.132691,35800,"Saint-Briac-sur-Mer","Geocaching","oui"
48.1333263,-2.0423911,35750,"Iffendic","",""
47.7102854,-2.1160502,35600,"Bains-sur-Oust","Canoë kayak#Escalade#Multisport#Stand up paddle#Tir à l’arc#VTT","oui"
48.648949,-2.025307,35400,"Saint-Malo","",""
47.944584,-1.500597,35150,"Janzé","Equitation",""
47.6802946,-1.950951,35660,"La Chapelle-de-Brain","",""
47.6506384,-2.0896838,35600,"Redon","","oui"
48.019916,-2.1711583,35380,"Paimpont","Cyclotourisme","oui"
47.651474,-2.0839714,35600,"Redon","",""
47.768483,-1.983998,35550,"Saint-Just","Attelage#Equitation",""
47.9476118,-1.6232661,35150,"Chanteloup","Attelage#Equitation#Randonnée équestre",""
47.7568437,-1.8333764,35660,"Langon","Pêche",""
48.54969,-1.753965,35120,"Dol-de-Bretagne","Arts martiaux",""
48.6124583,-1.8391044,35120,"Hirel","",""
48.6354014,-2.1047852,35800,"Saint-Lunaire","Pêche#Randonnée pédestre",""
48.03803,-1.4727299,35410,"Châteaugiron","Centres équestres et poneys clubs#Equitation#Randonnée équestre",""
47.919,-1.21783,35130,"Rannée","Equitation#Randonnée équestre","oui"
48.1856196,-2.1806431,35290,"Saint-Méen-le-Grand","Geocaching","oui"
48.344641,-1.827926,35190,"Québriac","Canoë kayak",""
48.4268351,-1.5751481,35560,"Bazouges-la-Pérouse","Geocaching",""
48.093149,-2.06329,35750,"Iffendic","Geocaching#Randonnée pédestre",""
48.568117,-1.5483239,35610,"Saint-Georges-de-Gréhaigne","ULM",""
48.1924,-1.8964,35137,"Pleumeleuc","Randonnée pédestre","oui"
48.4107168,-1.3639821,35460,"Maen Roch","Geocaching","oui"
47.6655007,-2.0885758,35600,"Redon","Randonnée pédestre",""
48.0476782,-1.5021568,35410,"Châteaugiron","",""
48.6183841,-2.0165529,35400,"Saint-Malo","Tir à l’arc","oui"
NA,NA,35400,"Saint-Malo","",""
48.6410044,-2.0224862,35400,"Saint-Malo","Pêche",""
48.6334869,-1.9913988,35400,"Saint-Malo","",""
48.649337,-2.025674,35400,"Saint-Malo","Stand up paddle","oui"
48.6344916,-2.0490425,35800,"Dinard","",""
48.6696134,-1.8583754,35260,"Cancale","",""
48.4801438,-1.1232864,35420,"Louvigné-du-Désert","Geocaching",""
47.650742,-2.083938,35600,"Redon","Pêche","oui"
48.3564518,-1.2119752,35300,"Fougères","Geocaching",""
48.5931794,-1.7534886,35120,"Mont-Dol","Attelage#Randonnée équestre","oui"
48.635921,-2.023351,35400,"Saint-Malo","Voile",""
48.6471847,-2.0087308,35400,"Saint-Malo","Motonautisme",""
48.584965,-2.0026256,35870,"Le Minihic-sur-Rance","Voile",""
48.6397845,-2.0187309,35400,"Saint-Malo","Stand up paddle#Surf",""
48.6530481,-2.0131322,35400,"Saint-Malo","Randonnée pédestre",""
47.8263396,-1.8136687,35480,"Guipry-Messac","Catamaran",""
48.066085,-1.667409,35230,"Noyal-Châtillon-sur-Seiche","Pilotage et baptème automobile","oui"
47.8669051,-1.8781467,35550,"Lohéac","",""
48.6476817,-2.0301183,35400,"Saint-Malo","Aviron#Planche à voile#Voile","oui"
48.425326,-1.7032199,35270,"Trémeheuc","",""
47.8101424,-1.9450115,35550,"Pipriac","",""
48.017585,-2.171704,35380,"Paimpont","Stand up paddle",""
48.6741321,-1.9804195,35400,"Saint-Malo","Sauvetage côtier#Surf","oui"
48.646504,-1.9861681,35400,"Saint-Malo","Pêche","oui"
48.1046844,-1.5198167,35530,"Noyal sur Vilaine","",""
48.047639,-1.502308,35410,"Châteaugiron","",""
48.6319149,-1.9815769,35400,"Saint-Malo","",""
48.1134405,-2.0666753,35750,"Saint-Gonlay","Randonnée pédestre",""
48.102035,-1.712193,35000,"Rennes","","oui"
48.184287,-1.95578,35137,"Bédée","",""
48.105096,-2.001491,35750,"Iffendic","",""
48.637148,-2.0568263,35800,"Dinard","Canoë kayak#Kayak de mer#Stand up paddle",""
48.6416378,-2.0212657,35400,"Saint-Malo","Aviron","oui"
48.6085599,-2.1543669,22770,"Lancieux","Natation",""
48.0023538,-2.1024708,35380,"Plélan-le-Grand","Randonnée pédestre",""
48.0498308,-2.1521137,35380,"Paimpont","",""
47.69882,-1.89781,35660,"La Chapelle-de-Brain","Cyclotourisme#VTT","oui"
47.651101,-2.084903,35600,"Redon","",""
47.764526,-1.939792,35550,"Saint-Just","Randonnée pédestre#Yoga / Bien-être","oui"
48.3480832,-1.406263,35460,"Le Tiercent","Geocaching",""
47.783356,-1.976232,35550,"Pipriac","Parapente#Promenade aérienne",""
48.57868,-2.00987,35870,"Le Minihic-sur-Rance","Stand up paddle#Yoga / Bien-être",""
48.6363965,-2.0490823,35800,"Dinard","Plongée",""
48.041236,-2.257495,35380,"Paimpont","Attelage","oui"
47.893987,-1.7447847,35470,"Pléchâtel","Randonnée pédestre#VTT","oui"
48.018933,-2.1725241,35380,"Paimpont","Randonnée pédestre",""
48.2008423,-2.0473645,35360,"Montauban-de-Bretagne","Geocaching","oui"
48.1372563,-1.6957694,35760,"Saint-Grégoire","Escalade",""
48.5895909,-2.1425735,22770,"Lancieux","",""
48.6082368,-2.1482728,22770,"Lancieux","","oui"
48.04765,-1.50211,35410,"Châteaugiron","",""
48.1142,-1.52397,35530,"Noyal-sur-Vilaine","",""
48.04765,-1.50211,35410,"Châteaugiron","",""
48.5453212,-1.7550395,35120,"Dol-de-Bretagne","","oui"
48.6040201,-2.1402591,22770,"Lancieux","",""
48.5930795,-2.1644933,22770,"Lancieux","",""
48.00152,-2.09926,35380,"Plélan-le-Grand","",""
48.10014,-1.6901,35000,"Rennes","",""
48.63441,-2.05479,35800,"Dinard","",""
48.63441,-2.05479,35800,"Dinard","",""
48.63441,-2.05479,35800,"Dinard","",""
48.6330015,-2.0509672,35800,"Dinard","",""
48.63441,-2.05479,35800,"Dinard","",""
48.63441,-2.05479,35800,"Dinard","",""
47.7200013,-1.8487054,35660,"Langon","Geocaching",""
48.6358922,-2.1060486,35800,"Saint-Lunaire","Marche aquatique#Yoga / Bien-être",""
47.9937,-2.14159,35380,"Paimpont","",""
48.5890125,-2.0756472,35400,"Saint-Malo","Baptême de l'air#Promenade aérienne#ULM","oui"
47.6866871,-2.0583438,35600,"Bains-sur-Oust","Randonnée pédestre",""
47.65444,-2.08582,35600,"Redon","",""
48.6517281,-2.0160768,35400,"Saint-Malo","Voile","oui"
48.3941089,-1.1737907,35133,"Landéan","Canoë kayak#Parcours dans les arbres",""
47.99298,-1.42757,35150,"Piré-Chancé","",""
47.98292,-2.03368,35380,"Maxent","Randonnée avec un âne#Randonnée pédestre",""
48.6326389,-2.0511458,35800,"Dinard","Promenade aérienne#ULM",""
48.6358236,-2.1222676,35800,"Saint-Lunaire","Canoë kayak#Kayak de mer#Pêche#Stand up paddle#Surf#Wave-ski",""
48.0476732,-1.5021341,35410,"Châteaugiron","",""
48.0487348,-1.5027779,35410,"Châteaugiron","",""
48.5771073,-2.1447229,22650,"Beaussais-sur-Mer","Natation#Plongée#Sauvetage côtier",""
47.6854409,-1.9412002,35660,"La Chapelle-de-Brain","Canoë kayak",""
47.66863,-2.06506,35600,"Redon","",""
48.63202,-2.051,35800,"Dinard","Bouée tractée",""
48.5885015,-2.0757329,35400,"Saint-Malo","Baptême de l'air#Promenade aérienne",""
48.66169,-1.86598,35260,"Cancale","Randonnée pédestre",""
48.1472,-1.31135,35500,"Champeaux","",""
47.94219,-1.23012,35130,"La Guerche-de-Bretagne","",""
48.62715,-2.14227,35800,"Saint-Briac-sur-Mer","",""
48.65058,-2.02315,35400,"Saint-Malo","Voile",""
48.12308,-1.2118,35500,"Vitré","",""
48.12308,-1.2118,35500,"Vitré","Jeu de piste",""
47.6515475,-2.0839666,35600,"Redon","",""
48.356466,-1.20189,35300,"Fougères","Geocaching",""
48.1232,-1.67245,35700,"Rennes","",""
48.12108,-1.17896,35500,"Vitré","",""
48.18051,-1.30211,35450,"Val-d'Izé","",""
48.66583,-1.94577,35350,"Saint-Coulomb","",""
48.65058,-2.02315,35400,"Saint-Malo","Parapente#Promenade aérienne",""
48.633147,-2.0119258,35400,"Saint-Malo","Yoga / Bien-être",""
48.6242927,-2.1369551,35800,"Saint-Briac-sur-Mer","",""
48.6040201,-2.1402591,22770,"Lancieux","",""
48.63518,-2.05315,35800,"Dinard","Yoga / Bien-être",""
47.8307874,-1.2863484,35640,"Martigné-Ferchaud","Jeu de piste",""
48.11822,-1.21018,35500,"Vitré","",""
48.13208,-2.22335,35290,"Gaël","Geocaching#Jeu de piste",""
48.14981,-1.12161,35500,"Saint-M'Hervé","Geocaching",""
47.8634,-1.89756,35550,"Lohéac","",""
48.63518,-2.05315,35800,"Dinard","Pêche",""
48.6252726,-2.1366122,35800,"Saint-Briac-sur-Mer","",""
48.11712,-1.60421,35510,"Cesson-Sévigné","Badminton",""
48.06979,-1.20001,35370,"Étrelles","Randonnée avec un âne",""
47.70414,-2.06992,35600,"Bains-sur-Oust","",""
47.64715,-2.08582,35600,"Redon","",""
48.10804,-1.68449,35000,"Rennes","Randonnée pédestre",""
48.0472,-1.50428,35410,"Châteaugiron","",""
48.63518,-2.05315,35800,"Dinard","",""
48.60611,-2.15061,22770,"Lancieux","",""
47.7751914,-1.8385372,35480,"Guipry-Messac","Canoë kayak",""
48.13545,-2.1011,35290,"Saint-Onen-la-Chapelle","",""
48.6505069,-2.0231949,35400,"Saint-Malo","Randonnée pédestre",""
48.6319149,-1.9815769,35400,"Saint-Malo","Pilotage et baptème automobile",""
48.6508,-2.02225,35400,"Saint-Malo","Cyclotourisme",""
47.65279,-2.0781,35600,"Redon","",""
48.0207,-2.17097,35380,"Paimpont","",""
47.9548954,-2.5475692,56120,"Josselin","",""
48.00812,-2.2866834,56430,"Tréhorenteuc","",""
47.64245,-3.15532,56410,"Erdeven","Yoga / Bien-être",""
47.59827,-3.11227,56340,"Plouharnel","Pilotage aérien#ULM",""
47.6586,-3.20647,56410,"Étel","Spot Nautique",""
47.4829972,-3.1196706,56170,"Quiberon","Yoga / Bien-être",""
47.482133,-3.121053,56170,"Quiberon","Catamaran#Voile#Voile Croisière",""
47.66669,-2.98024,56400,"Auray","",""
48.06405,-2.20677,56430,"Concoret","Randonnée pédestre",""
48.06405,-2.20677,56430,"Concoret","Geocaching#Randonnée pédestre",""
48.06086,-2.2049,56430,"Concoret","Cyclotourisme",""
47.5823506,-3.0289231,56470,"La Trinité-sur-Mer","",""
47.6589402,-3.206774,56410,"Étel","",""
48.01579,-2.36977,56430,"Néant-sur-Yvel","",""
47.5734457,-3.0290005,56470,"La Trinité-sur-Mer","Kayak de mer#Pédalo#Stand up paddle",""
47.48577,-3.11926,56170,"Quiberon","",""
48.04061,-2.29399,56430,"Néant-sur-Yvel","",""
47.65748,-3.20043,56410,"Étel","",""
47.51984,-3.13332,56510,"Saint-Pierre-Quiberon","Yoga / Bien-être",""
48.06414,-2.20701,56430,"Concoret","",""
48.06414,-2.20701,56430,"Concoret","",""
47.5696,-2.94349,56740,"Locmariaquer","",""
47.6937384,-3.156827,56550,"Locoal-Mendon","",""
47.4778845,-3.1262176,56170,"Quiberon","",""
47.58721,-3.026663,56470,"La Trinité-sur-Mer","Voile",""
47.6411243,-3.171458,56410,"Erdeven","Equitation#Randonnée équestre",""
47.66992,-2.976623,56400,"Auray","Squash",""
47.5842284,-3.0260975,56470,"La Trinité-sur-Mer","Voile#Voile Croisière",""
47.5925733,-3.0264541,56470,"La Trinité-sur-Mer","Voile",""
47.568423,-3.097389,56340,"Carnac","Planche à voile#Stand up paddle#Wing foil",""
47.63563,-3.153474,56410,"Erdeven","",""
47.62057,-3.108101,56340,"Plouharnel","Equitation#Randonnée équestre",""
47.47937,-3.101058,56170,"Quiberon","Baptême de l'air",""
47.58473,-3.027405,56470,"La Trinité-sur-Mer","",""
47.8749517,-2.2063465,56380,"Monteneuf","",""
47.9551706,-2.5474625,56120,"Josselin","","oui"
47.80681,-2.379398,56140,"Malestroit","Canoë kayak",""
47.9505648,-2.5451423,56120,"Josselin","Canoë kayak#Pédalo#Stand up paddle","oui"
47.9483448,-2.4196743,56800,"Taupont","Pêche#Pêche en eau douce","oui"
47.8636978,-2.4469738,56460,"Val d'Oust","Parcours dans les arbres","oui"
47.78313,-2.105979,56200,"La Gacilly","",""
47.8650744,-2.4460078,56460,"Val d'Oust","Geocaching","oui"
47.8635568,-2.4462616,56460,"Val d'Oust","Cyclotourisme","oui"
47.7700156,-2.316731,56140,"Saint-Congard","Cyclotourisme",""
47.822443,-2.5061389,56460,"Sérent","Baptême de l'air",""
47.75118,-2.143706,56200,"La Gacilly","Equitation",""
47.849177,-2.500719,56460,"Sérent","Attelage",""
47.9782965,-2.1403356,56380,"Guer","Pêche",""
47.9533971,-2.5475504,56120,"Josselin","","oui"
47.9535745,-2.5468745,56120,"Josselin","","oui"
47.7247709,-2.133793,56200,"La Gacilly","",""
47.764375,-2.1302979,56200,"La Gacilly","",""
47.764005,-2.1325942,56200,"La Gacilly","",""
47.7633281,-2.129889,56200,"La Gacilly","",""
47.7639087,-2.1324689,56200,"La Gacilly","",""
47.7635612,-2.1304204,56200,"La Gacilly","",""
47.5799489,-3.0819795,56340,"Carnac","",""
47.5684684,-3.0794165,56340,"Carnac","Voile","oui"
47.59,-3.029068,56470,"La Trinité-sur-Mer","Catamaran#Voile","oui"
47.5343284,-3.1412344,56510,"Saint-Pierre-Quiberon","Kayak de mer#Stand up paddle","oui"
47.48417,-3.109853,56170,"Quiberon","Plongée","oui"
47.5563,-2.929165,56740,"Locmariaquer","Planche à voile#Voile",""
47.61206,-3.168182,56410,"Erdeven","Stand up paddle#Surf","oui"
47.57614,-3.052933,56340,"Carnac","",""
47.48798,-3.103981,56170,"Quiberon","",""
47.82798,-2.991401,56330,"Camors","",""
47.5878,-3.028168,56470,"La Trinité-sur-Mer","Voile",""
47.51902,-3.141269,56510,"Saint-Pierre-Quiberon","Yoga / Bien-être",""
47.48576,-3.119382,56170,"Quiberon","Plongée",""
47.74163,-3.016949,56330,"Pluvigner","Pêche",""
47.5887401,-3.0308129,56470,"La Trinité-sur-Mer","Voile",""
47.58709,-3.027523,56470,"La Trinité-sur-Mer","Voile",""
47.48576,-3.119382,56170,"Quiberon","Bouée tractée#Ski nautique",""
47.55111,-3.134248,56470,"La Trinité-sur-Mer","Canoë kayak#Char à voile#Kayak de mer#Multisport#Surf#Voile#VTT",""
47.81392,-2.984339,56330,"Camors","",""
47.66579,-2.989778,56400,"Auray","Motonautisme",""
47.5106,-3.137762,56510,"Saint-Pierre-Quiberon","Equitation#Randonnée équestre",""
47.6157395,-3.1608409,56410,"Erdeven","Cyclotourisme",""
47.63563,-3.153474,56410,"Erdeven","",""
47.58743,-3.0271149,56470,"La Trinité-sur-Mer","Voile",""
47.66159,-3.156689,56550,"Belz","",""
47.66962,-3.093737,56400,"Ploemel","",""
47.48425,-3.101913,56170,"Quiberon","Voile",""
47.82798,-2.991401,56330,"Camors","",""
47.4752767,-3.126994,56170,"Quiberon","Pêche en mer",""
47.65989,-3.193352,56410,"Étel","Plongée",""
47.58743,-3.0271149,56470,"La Trinité-sur-Mer","Catamaran#Voile",""
47.4793721,-3.1010577,56170,"Quiberon","Parachutisme#ULM",""
47.66405,-2.977325,56400,"Auray","Canoë kayak#Kayak de mer",""
47.48473,-3.099646,56170,"Quiberon","Voile",""
47.6161698,-3.1610699,56410,"Erdeven","Natation",""
47.7640682,-2.1321859,56200,"La Gacilly","",""
48.0633253,-2.3401017,56430,"Mauron","Equitation#Randonnée équestre","oui"
47.8603507,-2.4480668,56460,"Val d'Oust","Centres équestres et poneys clubs#Equitation#Randonnée équestre","oui"
47.8095495,-2.3835434,56140,"Malestroit","",""
47.9374411,-2.3981256,56800,"Ploërmel","Attelage#Randonnée équestre","oui"
47.9509504,-2.545817,56120,"Josselin","","oui"
48.6365955,-2.0803427,35800,"Dinard","Canoë kayak#Catamaran#Dériveur#Planche à voile#Voile#Voile Croisière",""
47.6125,-3.16799,56410,"Erdeven","Kite-surf#Stand up paddle","oui"
48.3904211,-4.4850386,29200,"Brest","",""
48.760823,-3.561849,22560,"Trébeurden","",""
48.12308,-1.2118,35500,"Vitré","","oui"
48.5814669,-3.8304183,29600,"Morlaix","",""
47.6773448,-3.1762574,56550,"Belz","Canoë kayak","oui"
47.9100118,-3.9772053,29940,"La Forêt-Fouesnant","","oui"
48.0930465,-4.3307421,29100,"Douarnenez","","oui"
48.6340149,-2.9761445,22290,"Lanvollon","","oui"
48.0014684,-4.1050142,29000,"Quimper","Grimpe d'arbre","oui"
48.5338489,-1.5638759,35610,"Pleine-Fougères","",""
48.577613,-3.8282279,29600,"Morlaix","",""
47.7622143,-2.1288531,56200,"La Gacilly","",""
47.875454,-3.9164146,29900,"Concarneau","Plongée#Randonnée palmée",""
48.6789386,-1.8685866,35260,"Cancale","Voile Croisière",""
47.5729574,-2.9612645,56740,"Locmariaquer","Voile Croisière","oui"
48.310745,-2.873217,22460,"Allineuc","Pédalo#Randonnée pédestre",""
48.699544,-1.850128,35260,"Cancale","Voile","oui"
48.6509013,-2.0207767,35400,"Saint-Malo","Voile",""
48.5250914,-2.7462926,22190,"Plérin","",""
48.6547162,-1.998598,35400,"Saint-Malo","Voile",""
47.6660213,-2.9791047,56400,"Auray","","oui"
48.223243,-4.497528,29160,"Crozon","Voile",""
48.52334,-4.761355,29840,"Landunvez","Kayak de mer",""
47.801104,-4.299087,29730,"Guilvinec","Kayak de mer",""
48.6705269,-1.8554952,35260,"Cancale","Voile",""
48.6288044,-2.0621549,35800,"Dinard","Kayak de mer",""
48.6694696,-1.8668975,35260,"Cancale","Voile",""
48.8297939,-3.524952,22730,"Trégastel","Kayak de mer",""
48.3793364,-4.4863189,29200,"Brest","Voile",""
48.3825293,-4.4853446,29200,"Brest","",""
48.2235066,-4.4994505,29160,"Crozon","","oui"
47.9042973,-4.2879572,29720,"Plonéour-Lanvern","Voile","oui"
47.8818698,-2.1809304,56380,"Monteneuf","",""
47.9707237,-2.1718817,56380,"Beignon","Randonnée pédestre",""
47.7651619,-2.1312,56200,"La Gacilly","Geocaching",""
47.7712275,-2.3139947,56200,"La Gacilly","",""
48.0703894,-2.1737107,56430,"Concoret","",""
47.58611,-3.036416,56470,"La Trinité-sur-Mer","Voile","oui"
47.7651619,-2.1312,56200,"La Gacilly","ULM",""
48.0077149,-2.2874441,56430,"Tréhorenteuc","Randonnée pédestre","oui"
47.951483,-2.148618,56380,"Saint-Malo-de-Beignon","",""
47.915577,-2.263998,56800,"Augan","",""
48.008879,-2.28777,56430,"Tréhorenteuc","Randonnée équestre",""
48.0079315,-2.2872979,56430,"Tréhorenteuc","Randonnée pédestre",""
47.90206,-2.12025,56380,"Guer","Geocaching#Jeu de piste#Randonnée pédestre",""
47.734447,-2.112483,56200,"La Gacilly","Randonnée pédestre",""
48.03794,-2.50593,56490,"Mohon","","oui"
47.727177,-2.133709,56200,"La Gacilly","",""
47.76516,-2.1312,56200,"La Gacilly","Geocaching#Randonnée pédestre",""
47.5673636,-2.9372157,56740,"Locmariaquer","",""
48.064528,-2.1872585,56430,"Concoret","",""
48.0649322,-2.1999511,56430,"Concoret","","oui"
47.9537171,-2.5476064,56120,"Josselin","Geocaching#Jeu de piste","oui"
47.96368,-2.44116,56800,"Taupont","Centres équestres et poneys clubs#Equitation#Randonnée équestre",""
47.48596,-3.0999389,56170,"Quiberon","Bouée tractée",""
47.5871748,-3.0270347,56470,"La Trinité-sur-Mer","",""
48.0640462,-2.2046911,56430,"Concoret","Randonnée pédestre",""
47.6664055,-3.0295145,56950,"Crach","Kite-surf#Spot Nautique#Stand up paddle#Wing foil",""
47.55911,-3.136031,56510,"Saint-Pierre-Quiberon","Jeu de piste#Kayak de mer#Multisport#Rafting#Randonnée pédestre#Stand up paddle#Tir à l’arc#VTT#Wave-ski",""
47.585724,-3.0264822,56470,"La Trinité-sur-Mer","",""
47.61746,-2.99934,56950,"Crach","",""
47.61498,-3.15234,56410,"Erdeven","VTT",""
47.6603678,-3.1658412,56550,"Locoal-Mendon","",""
47.67134,-2.99078,56400,"Auray","",""
47.48569,-3.11922,56170,"Quiberon","Voile Croisière",""
48.00782,-2.2868,56430,"Tréhorenteuc","Geocaching#Jeu de piste",""
47.66914,-2.98714,56400,"Auray","",""
48.5359161,-2.7536519,22190,"Plérin","Attelage#Equitation#Randonnée équestre",""
48.799486,-3.5780668,22560,"Pleumeur-Bodou","",""
48.6085599,-2.1543669,22770,"Lancieux","Catamaran#Char à voile#Kayak de mer#Kite-surf#Planche à voile#Voile","oui"
48.3536415,-2.5544028,22510,"Trébry","VTT","oui"
48.636021,-2.473447,22430,"Erquy","Catamaran#Char à voile#Dériveur#Kayak de mer#Planche à voile#Stand up paddle#Voile#Wing foil","oui"
48.6318308,-2.2554588,22380,"Saint-Cast-le-Guildo","Plongée",""
48.53927,-2.1897983,22130,"Créhen","Equitation#Randonnée équestre","oui"
48.7220388,-3.5292145,22300,"Ploumilliau","Equitation#Randonnée équestre",""
48.6688516,-3.5996639,22310,"Plestin-les-Grèves","Catamaran#Char à voile#Kayak de mer#Marche aquatique#Stand up paddle#Wing foil","oui"
48.5618715,-3.197043,22200,"Plouisy","Equitation","oui"
48.192585,-2.717567,22600,"Loudéac","Attelage#Equitation",""
48.630256,-2.9235649,22290,"Pléguien","Attelage#Equitation#Randonnée équestre","oui"
48.4399065,-2.2263622,22980,"Plélan-le-Petit","Attelage#Equitation#Randonnée équestre",""
48.4996446,-2.7591562,22000,"Saint-Brieuc","Equitation#Randonnée équestre",""
48.6751218,-2.9092311,22580,"Plouha","Equitation#Randonnée équestre","oui"
48.6824892,-3.5593986,22300,"Saint-Michel-en-Grève","Equitation#Randonnée équestre",""
48.56736,-3.33854,22540,"Louargat","",""
48.5437451,-3.3961915,22810,"Belle-Isle-en-Terre","",""
48.7683093,-3.5809469,22560,"Trébeurden","Catamaran#Dériveur#Kayak de mer#Planche à voile#Stand up paddle","oui"
48.325028,-2.966603,22320,"La Harmoye","Attelage#Randonnée équestre",""
48.2135782,-3.0066812,22158,"Guerlédan","Equitation",""
48.4549356,-2.0378857,22100,"Lanvallay","Canoë kayak","non"
48.1898212,-3.016667,22530,"Guerlédan","Canoë kayak",""
48.1987593,-3.0133813,22530,"Guerlédan","VTT",""
48.1987343,-3.0137729,22530,"Guerlédan","Voile",""
48.6392359,-2.403849,22240,"Fréhel","Catamaran#Char à voile#Dériveur#Kayak de mer#Marche aquatique#Planche à voile#Stand up paddle#Voile",""
48.52059,-2.2321076,22130,"Plancoët","Canoë kayak#Kayak de mer#Stand up paddle",""
48.8297564,-3.5249966,22730,"Trégastel","Canoë kayak#Dériveur#Fun board#Kayak de mer#Planche à voile#Stand up paddle#Voile#Wing foil","oui"
48.5610379,-3.152132,22200,"Guingamp","Canoë kayak",""
48.7272088,-2.9492497,22580,"Plouha","Catamaran#Dériveur#Kayak de mer#Planche à voile#Stand up paddle#Voile","oui"
48.5782823,-3.1845438,22200,"Plouisy","VTT",""
48.562284,-3.1494927,22200,"Guingamp","","oui"
48.5610592,-3.152883,22200,"Guingamp","Randonnée pédestre",""
48.6285121,-2.2530769,22380,"Saint-Cast-le-Guildo","Marche aquatique",""
48.585676,-2.54087,22370,"Pléneuf-Val-André","Equitation","oui"
48.55059,-2.57962,22400,"Lamballe-Armor","Equitation","non"
48.541208,-2.970173,22170,"Châtelaudren-Plouagat","",""
48.6481344,-2.8237258,22410,"Saint-Quay-Portrieux","Plongée",""
48.6288857,-2.4561573,22430,"Erquy","Pêche#Pêche en mer","oui"
48.7400101,-3.1148219,22860,"Plourivo","Equitation#Randonnée équestre","oui"
48.5249231,-1.9847949,22490,"Plouër-sur-Rance","Canoë kayak#Catamaran#Dériveur#Kayak de mer#Stand up paddle#Voile",""
48.517898,-2.2873549,22130,"Pluduno","Equitation",""
48.7592675,-3.002355,22560,"Paimpol","Parapente",""
48.6500987,-2.833571,22410,"Saint-Quay-Portrieux","Ping-pong",""
48.7038305,-1.8484962,35260,"Cancale","Voile",""
48.6408276,-2.2484111,22380,"Saint-Cast-le-Guildo","Catamaran#Dériveur#Fun board#Kayak de mer#Planche à voile#Stand up paddle#Voile#Voile habitable",""
48.703651,-3.160079,22260,"Pontrieux","Canoë kayak","oui"
48.8062981,-3.5646986,22560,"Pleumeur-Bodou","Catamaran#Dériveur#Kayak de mer#Marche aquatique#Planche à voile#Stand up paddle#Voile#Wing foil","oui"
48.798652,-3.4283566,22700,"Louannec","Catamaran#Planche à voile#Voile",""
48.6129378,-2.2420692,22380,"Saint-Cast-le-Guildo","Catamaran#Dériveur#Fun board#Kayak de mer#Planche à voile#Stand up paddle",""
48.418554,-3.110691,22480,"Saint-Connan","",""
48.4427981,-2.1023485,22100,"Trélivan","Parachutisme",""
48.5216831,-2.2383403,22130,"Plancoët","",""
48.6409161,-2.4057748,22240,"Fréhel","Voile",""
48.7779053,-3.0412154,22500,"Paimpol","",""
48.588176,-2.4901925,22430,"Erquy","Attelage","oui"
48.4432406,-2.1032778,22100,"Trélivan","Promenade aérienne",""
48.6972499,-3.162961,22260,"Pontrieux","Ping-pong",""
48.6972499,-3.162961,22260,"Pontrieux","Randonnée pédestre",""
48.6972499,-3.162961,22260,"Pontrieux","Multisport",""
48.663265,-3.219449,22140,"Brélidy","Gymnastique",""
48.6216456,-2.9977995,22290,"Lanvollon","Multisport","oui"
48.8148904,-3.5374333,22560,"Trébeurden","Multisport",""
48.779782,-3.048828,22500,"Paimpol","Randonnée pédestre",""
48.7791739,-3.0507162,22500,"Paimpol","Randonnée pédestre","oui"
48.360082,-3.350101,22160,"Saint-Nicodème","Equitation#Randonnée équestre","oui"
48.684792,-3.565043,22300,"Saint-Michel-en-Grève","Kite-surf#Stand up paddle#Surf#Wing foil",""
48.497513,-2.647959,22120,"Hillion","Equitation",""
48.6480232,-2.8229928,22410,"Saint-Quay-Portrieux","Voile#Voile habitable",""
48.6481518,-2.8266127,22410,"Saint-Quay-Portrieux","","non"
48.5855203,-2.1915724,22750,"Saint-Jacut-de-la-Mer","Baptême de l'air#Parapente#Pilotage aérien#Promenade aérienne#Vol à voile","oui"
48.775764,-3.5296653,22560,"Pleumeur-Bodou","Marche aquatique#Pêche#Randonnée pédestre",""
48.5540383,-2.7147438,22190,"Plérin","Parapente","oui"
48.337095,-2.030534,22630,"Tréfumel","Equitation",""
48.6012547,-2.8291875,22520,"Binic-Étables-sur-Mer","","non"
48.8042791,-3.5147981,22560,"Pleumeur-Bodou","Equitation","oui"
48.7813627,-3.0438779,22500,"Plourivo","Pêche#Pêche en mer#Voile",""
48.7806476,-3.0444596,22500,"Paimpol","Pêche#Pêche en mer",""
48.6431463,-2.8232449,22410,"Saint-Quay-Portrieux","Catamaran#Dériveur#Fun board#Kayak de mer#Planche à voile#Stand up paddle#Voile",""
48.6257253,-2.8343009,22680,"Binic-Étables-sur-Mer","Cyclotourisme",""
48.6003213,-2.8204568,22520,"Binic-Étables-sur-Mer","Catamaran#Dériveur#Kayak de mer#Planche à voile#Stand up paddle#Voile","non"
48.7092216,-3.0664339,22930,"Yvias","Equitation","oui"
48.6016333,-2.8277791,22680,"Binic-Étables-sur-Mer","Randonnée pédestre",""
48.2360321,-3.3187266,22110,"Rostrenen","",""
48.223252,-3.394891,22110,"Glomel","Canoë kayak#VTT",""
48.6229808,-2.8220271,22520,"Binic-Étables-sur-Mer","Pêche",""
48.7792722,-3.5444921,22560,"Trébeurden","Equitation#Randonnée équestre","oui"
48.7347388,-3.1138743,22860,"Plourivo","","oui"
48.5347281,-2.8548038,22440,"Trémuson","Baptême de l'air#Promenade aérienne",""
48.726676,-3.452022,22300,"Lannion","Pêche#Pêche en eau douce",""
48.6169054,-3.411991,22420,"Le Vieux-Marché","Pêche#Pêche en eau douce","oui"
48.6382583,-2.4054806,22240,"Fréhel","Bodyboard#Stand up paddle#Surf",""
48.6576548,-3.6306164,22310,"Plestin-les-Grèves","","oui"
48.402368,-3.2342559,22480,"Kerien","Equitation#Randonnée équestre",""
48.64056,-2.247412,22380,"Saint-Cast-Le-Guildo","","oui"
48.6739018,-3.4147493,22300,"Ploubezre","Pêche#Pêche en eau douce","oui"
48.6837645,-3.5672356,22300,"Saint-Michel-en-Grève","Bodyboard#Stand up paddle#Surf","oui"
48.4579663,-2.0365981,22100,"Dinan","Gyropode",""
48.4537261,-2.0420624,22100,"Dinan","Yoga / Bien-être",""
48.465958,-2.0200029,22100,"Lanvallay","Yoga / Bien-être",""
48.4593892,-2.0619273,22100,"Quévert","Arts martiaux#Yoga / Bien-être",""
48.602533,-2.502783,22370,"Pléneuf-Val-André","Football#Parapente","oui"
48.6374329,-2.4755649,22430,"Erquy","Escalade","oui"
48.4569236,-2.0380712,22100,"Dinan","",""
48.3798214,-1.9960222,22630,"Saint-André-des-Eaux","Canoë kayak#Planche à voile#Voile",""
48.7958341,-3.4105337,22700,"Louannec","",""
48.6128366,-3.2432912,22140,"Saint-Laurent","Attelage",""
48.225184,-3.180776,22570,"Gouarec","Canoë kayak#Cyclotourisme#Ping-pong",""
48.7729804,-3.5842105,22560,"Trébeurden","Kayak de mer#Stand up paddle",""
48.6016971,-2.8277515,22520,"Binic-Étables-sur-Mer","",""
48.6342891,-2.8325843,22680,"Binic-Étables-sur-Mer","",""
48.6246124,-2.2492414,22380,"Saint-Cast-le-Guildo","Gyropode",""
48.770956,-3.5826572,22560,"Trébeurden","Natation",""
48.5937701,-2.3603177,22550,"Hénanbihen","Pêche#Pêche en eau douce",""
48.584729,-2.3654461,22550,"Hénanbihen","Pêche#Pêche en eau douce",""
48.7184379,-2.9361635,22580,"Plouha","Escalade#Multisport#Natation#Plongée","oui"
48.786399,-3.2228607,22220,"Tréguier","Basket#Escalade#Football#Kayak de mer#Multisport#Ping-pong#Randonnée pédestre#Tennis#Tir à l’arc","oui"
48.4889406,-2.000767,22690,"La Vicomté-sur-Rance","Quad",""
48.451253,-2.955587,22800,"Cohiniac","Equitation","oui"
48.4135116,-2.5941925,22510,"Bréhand","Attelage#Equitation#Randonnée équestre",""
48.803694,-3.241389,22220,"Plouguiel","Randonnée pédestre","oui"
48.815285,-3.381076,22660,"Trélévern","Pêche en mer#Pêche en mer#Voile","oui"
48.7875251,-3.2306024,22220,"Tréguier","","oui"
48.6081027,-2.8495748,22520,"Binic-Étables-sur-Mer","",""
48.61944,-3.247458,22140,"Saint-Laurent","","oui"
48.586398,-2.1900019,22750,"Saint-Jacut-de-la-Mer","Char à voile","oui"
48.512185,-2.677578,22120,"Hillion","","oui"
48.1987958,-3.0137921,22530,"Guerlédan","VTT",""
48.585676,-2.54087,22370,"Pléneuf-Val-André","Gymnastique",""
48.5436347,-3.3958773,22810,"Belle-Isle-en-Terre","","oui"
48.5570086,-3.184558,22200,"Grâces","Randonnée pédestre",""
48.58632,-3.13607,22200,"Pabu","Randonnée pédestre",""
48.5785577,-3.1846061,22200,"Plouisy","Randonnée pédestre",""
48.4030904,-2.9101501,22800,"Quintin","Jeu de piste",""
48.5117221,-2.7622061,22000,"Saint-Brieuc","Jeu de piste",""
48.6430686,-2.2574811,22380,"Saint-Cast-le-Guildo","Canoë kayak#Kayak de mer#Pêche#Stand up paddle#Wave-ski",""
48.4029551,-2.909878,22800,"Quintin","",""
48.624786,-2.261626,22380,"Saint-Cast-le-Guildo","Marche aquatique#Natation",""
48.351327,-2.019497,22630,"Tréfumel","","oui"
48.51572,-2.7639,22000,"Saint-Brieuc","",""
48.5625147,-3.5578956,22780,"Plounérin","Jeu de piste","oui"
48.474141,-3.5637509,22780,"Plougras","Jeu de piste#Randonnée pédestre","oui"
48.6412452,-3.3720766,22140,"Pluzunet","Jeu de piste#Randonnée pédestre","oui"
48.490522,-1.9793047,22690,"La Vicomté-sur-Rance","",""
48.5925783,-2.2877101,22550,"Matignon","",""
48.5219261,-2.2357387,22130,"Plancoët","",""
48.5145588,-2.2145371,22130,"Plancoët","",""
48.5357489,-2.1017,22490,"Pleslin-Trigavou","",""
48.357962,-2.12467,22350,"Plumaudan","",""
48.4662491,-2.0755506,22100,"Quévert","",""
48.377534,-2.0108259,22630,"Saint-André-des-Eaux","",""
48.6272448,-2.2703197,22380,"Saint-Cast-le-Guildo","Football",""
48.5749553,-2.216764,22380,"Saint-Cast-le-Guildo","",""
48.5855203,-2.1915724,22750,"Saint-Jacut-de-la-Mer","",""
48.554972,-2.23663,22130,"Saint-Lormel","",""
48.5627523,-3.1494735,22200,"Guingamp","Jeu de piste","oui"
48.72181,-3.5726,22300,"Trédrez-Locquémeau","Marche aquatique","oui"
48.4939029,-3.2475718,22390,"Pont-Melvez","","oui"
48.8146847,-3.4566029,22700,"Perros-Guirec","Natation",""
48.8138002,-3.4507825,22700,"Perros-Guirec","Pêche en mer",""
48.6317918,-2.2578488,22380,"Saint-Cast-le-Guildo","Jeu de piste",""
48.2161,-3.03735,22530,"Caurel","Pêche",""
48.83012,-3.4888,22700,"Perros-Guirec","",""
48.8256,-3.49049,22700,"Perros-Guirec","",""
48.832909,-3.4866027,22700,"Perros-Guirec","",""
48.79264,-3.46711,22700,"Perros-Guirec","",""
48.83454,-3.4827,22700,"Perros-Guirec","",""
48.62914,-2.46637,22430,"Erquy","Cyclotourisme#VTT","oui"
48.45422,-2.04798,22100,"Taden","Jeu de piste",""
48.8164321,-3.4543941,22700,"Perros-Guirec","Voile",""
48.8333955,-3.4862121,22700,"Perros-Guirec","Marche aquatique#Natation",""
48.63061,-3.30906,22140,"Bégard","Jeu de piste","oui"
48.62164,-3.20724,22140,"Kermoroc'h","Jeu de piste","oui"
48.54539,-3.13222,22970,"Ploumagoar","Jeu de piste","oui"
48.56279,-3.14948,22200,"Guingamp","Jeu de piste","oui"
48.535891,-3.387708,22810,"Belle-Isle-en-Terre","Randonnée pédestre","oui"
48.5116067,-2.2546129,NA,"Pluduno","",""
48.7432353,-3.5496953,22300,"Lannion","Bodyboard#Canoë kayak#Stand up paddle#Surf","oui"
48.6089061,-3.4686745,22420,"Plouaret","Jeu de piste","oui"
48.7318759,-3.4620896,22300,"Lannion","Jeu de piste#Randonnée pédestre","oui"
48.701538,-3.011666,22290,"Pléhédel","Randonnée pédestre",""
48.6562497,-2.8383611,22410,"Saint-Quay-Portrieux","",""
48.6502296,-2.8311154,22410,"Saint-Quay-Portrieux","Tennis",""
48.650178,-2.8335499,22410,"Saint-Quay-Portrieux","Badminton","oui"
48.78421,-3.11061,22740,"Lézardrieux","Randonnée pédestre","oui"
48.7624153,-3.4533537,22700,"Saint-Quay-Perros","Canoë kayak#Randonnée pédestre",""
48.5314149,-2.2247223,22130,"Saint-Lormel","","oui"
48.83725,-3.23281,22820,"Plougrescant","",""
48.62649,-2.40363,22240,"Plurien","Randonnée pédestre",""
48.8291413,-3.4735324,22700,"Perros-Guirec","",""
48.83645,-3.48295,22700,"Perros-Guirec","",""
48.81506,-3.43336,22700,"Perros-Guirec","",""
48.62649,-2.40363,22240,"Plurien","","oui"
48.5623811,-2.7565187,22000,"Saint-Brieuc","Jeu de piste",""
48.74772,-3.25657,22450,"La Roche-Jaudy","Jeu de piste",""
48.541432,-2.9697182,22170,"Châtelaudren-Plouagat","Jeu de piste","oui"
48.51572,-2.7639,22000,"Saint-Brieuc","",""
48.60595,-2.85079,22520,"Binic-Étables-sur-Mer","",""
48.440168,-2.752347,22960,"Plédran","",""
48.6016971,-2.8277515,22520,"Binic-Étables-sur-Mer","",""
48.51572,-2.7639,22000,"Saint-Brieuc","",""
48.51572,-2.7639,22000,"Saint-Brieuc","",""
48.49489,-2.71568,22360,"Langueux","",""
48.5245031,-2.7450921,22000,"Saint-Brieuc","",""
48.4030949,-2.9101375,22800,"Quintin","",""
48.79455,-3.02786,22620,"Ploubazlanec","Kayak de mer#Stand up paddle",""
48.20362,-2.99075,22530,"Guerlédan","",""
48.8294287,-3.498662,22730,"Trégastel","Randonnée pédestre",""
48.671266,-3.2884947,22140,"Prat","Pêche#Pêche en eau douce",""
48.5786797,-2.5693086,22370,"Pléneuf-Val-André","",""
48.48908,-1.98796,22690,"La Vicomté-sur-Rance","",""
48.59066,-2.55343,22370,"Pléneuf-Val-André","",""
48.233913,-2.3749159,22230,"Saint-Launeuc","Gyropode",""
48.57927,-2.56331,22370,"Pléneuf-Val-André","",""
48.5267708,-2.0035287,22490,"Plouër-sur-Rance","",""
48.81506,-3.43336,22700,"Perros-Guirec","",""
48.5909624,-2.917104,22410,"Lantic","",""
48.57081,-2.81832,22590,"Pordic","",""
48.63168,-2.25667,22380,"Saint-Cast-le-Guildo","Multisport#Yoga / Bien-être",""
48.4848452,-2.7922802,22440,"Ploufragan","Pêche#Pêche en eau douce",""
48.6014742,-2.8222345,22520,"Binic-Étables-sur-Mer","Bouée tractée#Jetski#Pêche#Scooter de mer",""
48.2095506,-3.0147096,22530,"Guerlédan","",""
48.8386253,-2.9967034,22870,"Île-de-Bréhat","Plongée",""
48.62818,-2.36471,22240,"Fréhel","Yoga / Bien-être",""
48.63038,-2.98567,22290,"Lanvollon","Multisport",""
48.73212,-3.45868,22300,"Lannion","Jeu de piste",""
48.650331,-2.36633,22240,"Fréhel","Escalade",""
48.654,-2.33234,22240,"Plévenon","Yoga / Bien-être",""
48.779,-3.04478,22500,"Paimpol","",""
48.779,-3.04478,22500,"Paimpol","",""
48.71059,-3.20375,22260,"Ploëzal","Jeu de piste",""
48.63829,-2.40575,22240,"Fréhel","",""
48.42821,-1.99053,22630,"Les Champs-Géraux","Equitation#Randonnée équestre",""
48.60275,-2.19111,22750,"Saint-Jacut-de-la-Mer","Gymnastique#Randonnée pédestre#Yoga / Bien-être",""
48.57384,-2.43487,22240,"La Bouillie","Multisport#Yoga / Bien-être",""
48.45422,-2.04798,22100,"Dinan","Jeu de piste",""
48.6587042,-4.2216682,29430,"Plouescat","Natation","non"
48.4033785,-4.4672404,29200,"Brest","Randonnée pédestre",""
48.1937901,-4.3022839,29550,"Saint-Nic","Char à voile#Marche aquatique#Stand up paddle","oui"
48.3934847,-4.4334561,29200,"Brest","Motonautisme#Voile#Voile habitable","oui"
48.456938,-5.0960359,29242,"Ouessant","Plongée","non"
47.7236369,-4.0017889,29170,"Fouesnant","Plongée",""
48.0980166,-4.3398569,29100,"Douarnenez","Kayak de mer#Stand up paddle#Voile#Voile habitable","oui"
47.8189824,-4.2085428,29740,"Plobannalec-Lesconil","Voile",""
48.2243009,-4.4952964,29160,"Crozon","Voile",""
48.692631,-4.130006,29233,"Cléder","Voile",""
48.008373,-4.557794,29770,"Audierne","Canoë kayak#Catamaran#Fun board#Planche à voile#Stand up paddle#Voile",""
47.7163534,-3.9590163,29185,"Concarneau","Kite-surf#Planche à voile#Voile",""
48.666158,-4.2131825,29430,"Plouescat","Char à voile#Kayak de mer#Planche à voile#Stand up paddle#Voile","oui"
48.6941043,-4.0555433,29250,"Santec","Bodyboard#Canoë kayak#Char à voile#Kayak de mer#Marche aquatique#Stand up paddle#Surf#Voile#Wave-ski","oui"
48.67313,-4.3280656,29890,"Plounéour-Brignogan-Plages","Fun board#Kayak de mer#Natation#Planche à voile#Stand up paddle#Voile","oui"
47.8283472,-4.162908,29750,"Loctudy","Fun board#Kayak de mer#Marche aquatique#Planche à voile#Stand up paddle#Voile#Wing foil","oui"
48.223243,-4.497528,29160,"Crozon","Canoë kayak#Fun board#Planche à voile#Stand up paddle#Surf#Voile#Wave-ski","oui"
48.4570569,-4.2401093,29800,"Landerneau","Canoë kayak#Kayak de mer#Stand up paddle","oui"
48.018395,-4.531971,29780,"Plouhinec","Canoë kayak#Stand up paddle","oui"
48.726199,-3.985325,29680,"Roscoff","Kayak de mer#Planche à voile#Stand up paddle#Voile#Voile habitable","oui"
48.390394,-4.486076,29200,"Brest","Aviron",""
48.3152796,-4.5456217,29570,"Roscanvel","Kayak de mer#Planche à voile#Stand up paddle",""
48.2621916,-4.613888,29570,"Camaret-sur-Mer","Planche à voile#Voile",""
47.8010938,-4.2990792,29730,"Guilvinec","Fun board#Kayak de mer#Planche à voile#Stand up paddle#Voile","oui"
48.6866541,-3.6530399,29241,"Locquirec","Canoë kayak#Planche à voile#Voile",""
48.0058402,-4.5573428,29770,"Audierne","Plongée",""
47.9733848,-4.0993471,29000,"Quimper","Aviron","oui"
47.8299206,-4.1749827,29750,"Loctudy","Ski nautique",""
47.895062,-3.654539,29380,"Le Trévoux","",""
48.585607,-3.7937164,29671,"Morlaix","",""
48.5722769,-3.8477253,29678,"Saint-Martin-des-Champs","",""
48.5062131,-3.9673488,29410,"Saint-Thégonnec Loc-Eguiner","",""
48.577613,-3.828228,29674,"Morlaix","",""
48.5754003,-3.8247442,29600,"Morlaix","","oui"
48.5758857,-3.8248334,29600,"Morlaix","",""
47.9047673,-3.4755205,29310,"Locunolé","Canoë kayak#Equitation#Parcours dans les arbres#Pêche#VTT",""
48.5235393,-4.7604114,29840,"Landunvez","Cyclotourisme#Kayak de mer#Marche aquatique#Natation#Pêche en mer#Plongée#Stand up paddle#Voile#Yoga / Bien-être",""
48.3466528,-4.7042681,29217,"Plougonvelin","Aviron#Catamaran#Flyboard#Fun board#Kayak de mer#Marche aquatique#Planche à voile#Stand up paddle#Voile",""
48.2458302,-4.4957818,29160,"Crozon","Surf","oui"
48.6688586,-3.893795,29660,"Carantec","Tennis",""
47.8251896,-4.3523808,29760,"Penmarch","Surf","oui"
48.6863311,-3.977734,29250,"Saint-Pol-de-Léon","Multisport",""
48.2253028,-4.5045696,29160,"Crozon","",""
48.2253028,-4.5045696,29160,"Crozon","Kayak de mer#VTT",""
48.5721555,-4.5864823,29870,"Landéda","","oui"
47.7989371,-4.3712656,29760,"Penmarch","Cyclotourisme#VTT","oui"
48.221311,-4.511846,29160,"Crozon","Cyclotourisme",""
47.805041,-3.7407267,29920,"Névez","Canoë kayak#Kayak de mer#Planche à voile#Stand up paddle#Voile",""
47.7940867,-3.8109469,29920,"Névez","Surf",""
47.8523253,-3.7368058,29930,"Pont-Aven","Canoë kayak",""
48.2141993,-4.3742625,29560,"Telgruc-sur-Mer","Escalade",""
48.144756,-4.271031,29550,"Plonévez-Porzay","Char à voile#Surf","oui"
48.5858568,-4.5748,29870,"Landéda","Voile",""
48.1880385,-3.8165442,29520,"Châteauneuf-du-Faou","Canoë kayak",""
47.8464425,-4.2788463,29120,"Plomeur","Char à voile",""
47.8752089,-4.1201833,29120,"Combrit","Ski nautique","oui"
47.8721388,-3.9151278,29900,"Concarneau","",""
48.5971142,-4.5618039,29870,"Landéda","Canoë kayak#Fun board#Kayak de mer#Marche aquatique#Planche à voile#Stand up paddle#Voile",""
47.8769136,-3.910676,29900,"Concarneau","",""
47.8454316,-4.0410139,29170,"Fouesnant","Canoë kayak#Kayak de mer#Stand up paddle","oui"
47.8992265,-3.9721352,29940,"La Forêt-Fouesnant","","oui"
47.8010989,-4.2785815,29750,"Loctudy","",""
48.365655,-4.7640269,29217,"Le Conquet","Bodyboard#Stand up paddle#Surf",""
47.938484,-4.4000801,29710,"Pouldreuzic","Bodyboard#Stand up paddle#Surf","oui"
47.795818,-3.58491,29360,"Clohars-Carnoët","Kayak de mer#Stand up paddle#Surf#Tir à l’arc#VTT",""
47.872586,-3.547546,29300,"Quimperlé","Plongée","oui"
48.5671156,-4.5348429,29870,"Lannilis","Equitation",""
48.5975,-4.56051,29870,"Landéda","Voile","oui"
47.868962,-3.9152408,29900,"Concarneau","Voile","oui"
47.872834,-3.920734,29900,"Concarneau","Voile",""
47.837068,-4.353274,29000,"Quimper","Bodyboard#Stand up paddle#Surf",""
48.2539434,-3.5420229,29270,"Carhaix-Plouguer","Randonnée pédestre",""
48.0947106,-4.3426656,29100,"Douarnenez","","non"
48.5724812,-4.607636,29830,"Saint-Pabu","Catamaran#Kayak de mer#Planche à voile#Voile",""
47.8710125,-3.5471645,29300,"Quimperlé","",""
48.6241897,-3.8574651,29670,"Locquénolé","",""
48.6579038,-3.9115595,29660,"Carantec","",""
47.898682,-4.301174,29720,"Plonéour-Lanvern","Equitation#Randonnée équestre","oui"
48.7104896,-3.8309669,29630,"Plougasnou","Plongée#Randonnée palmée",""
47.8975021,-3.9604209,29940,"La Forêt-Fouesnant","Canoë kayak#Kayak de mer#Stand up paddle","oui"
48.67912,-3.652423,29241,"Locquirec","Canoë kayak#Kayak de mer#Stand up paddle",""
48.6785139,-3.6495759,29241,"Locquirec","Stand up paddle",""
48.2486194,-3.5823672,29270,"Carhaix-Plouguer","Pêche",""
48.3462092,-4.7041597,29217,"Plougonvelin","Aviron","oui"
48.725562,-3.9824067,29680,"Roscoff","Kayak de mer#Voile",""
47.8367304,-4.3300704,29120,"Plomeur","Surf","oui"
48.1235591,-4.2221342,29550,"Plonévez-Porzay","Surf","oui"
47.8319819,-4.1787028,29750,"Loctudy","Cyclotourisme#VTT","oui"
47.9817512,-4.2701924,29710,"Plogastel-Saint-Germain","","oui"
47.819489,-4.25448,29740,"Plobannalec-Lesconil","ULM",""
48.7109143,-3.8304948,29630,"Plougasnou","Kayak de mer",""
48.6957937,-3.7928043,29630,"Plougasnou","Cyclotourisme#VTT","non"
48.4693814,-5.0568562,29242,"Ouessant","Cyclotourisme","oui"
48.209858,-3.750156,29530,"Plonévez-du-Faou","Equitation#Natation#Pêche#Randonnée équestre",""
48.6679476,-3.9148714,29660,"Carantec","Pêche",""
47.8733659,-3.9174489,29900,"Concarneau","Surf",""
48.3014365,-3.9557603,29190,"Brasparts","Attelage#Cyclotourisme#Equitation#Randonnée équestre#Randonnée pédestre#VTT",""
48.364078,-3.7460444,29690,"Huelgoat","",""
48.3058519,-3.86567,29530,"Plonévez-du-Faou","",""
48.3656851,-3.7456233,29690,"Huelgoat","",""
48.6655175,-3.7820321,29630,"Plougasnou","Ski nautique",""
48.2621916,-4.613888,29570,"Camaret-sur-Mer","Escalade",""
48.0061485,-4.5567361,29770,"Audierne","","oui"
47.7999681,-4.3180962,29760,"Penmarch","Marche aquatique",""
48.686185,-3.661973,29241,"Locquirec","",""
48.6293032,-4.5289797,29880,"Plouguerneau","Bodyboard#Stand up paddle#Surf",""
48.7149495,-3.815453,29630,"Plougasnou","Bodyboard#Kayak de mer#Stand up paddle#Surf","non"
48.1676438,-4.4332055,29100,"Douarnenez","Kite-surf#Surf",""
48.5208729,-3.9463439,29410,"Saint-Thégonnec Loc-Eguiner","Cyclotourisme#VTT","oui"
48.6536361,-4.4029827,29890,"Kerlouan","Bodyboard#Stand up paddle#Surf","oui"
48.0564121,-4.623496,29770,"Cléden cap sizun","Pêche#Pêche en mer",""
47.828516,-4.1628822,29750,"Loctudy","Natation","oui"
48.6906045,-3.6458367,29241,"Locquirec","Pêche","oui"
48.4643342,-4.5733446,29200,"milizac","Pêche","oui"
48.3803248,-4.5099023,29200,"Brest","Pêche#Pêche en mer","oui"
48.6694117,-3.9078258,29660,"Carantec","Marche aquatique",""
48.0364107,-4.852559,29990,"Ile de Sein","Canoë kayak#Stand up paddle#Tir à l’arc","oui"
47.8046447,-4.2766588,29730,"Guilvinec","Tennis",""
47.8992958,-3.9731707,29940,"La Forêt-Fouesnant","Voile","oui"
48.246198,-4.494614,29160,"Crozon","Gymnastique#Marche aquatique",""
48.691886,-3.645919,29241,"Locquirec","Marche aquatique",""
48.695548,-3.790033,29630,"Plougasnou","Voile",""
48.5662503,-4.6604176,29830,"Lampaul-Ploudalmézeau","Kite-surf",""
47.814833,-4.3727515,29760,"Penmarch","",""
47.8496774,-4.1623439,29980,"Île-Tudy","Marche aquatique#Natation",""
47.8562513,-4.2406363,29120,"Pont-L'Abbé","Tennis","oui"
48.7175001,-3.9704402,29680,"Roscoff","Voile","oui"
47.8007864,-4.2945157,29730,"Guilvinec","Marche aquatique#Natation","oui"
47.995314,-4.088985,29000,"Quimper","Bodyboard#Canoë kayak#Char à voile#Marche aquatique#Multisport#Planche à voile#Stand up paddle#Surf#Voile",""
48.669085,-3.907914,29660,"Carantec","Aviron",""
47.8700814,-4.116919,29120,"Combrit","Aviron#Canoë kayak#Stand up paddle",""
48.0404495,-4.7054488,NA,"","Randonnée pédestre","oui"
47.8277839,-4.1702535,29750,"Loctudy","Tennis","oui"
48.529568,-4.743204,29840,"Landunvez","",""
47.900282,-3.435647,29300,"Arzano","Randonnée équestre",""
48.3216086,-3.9930511,29190,"Brasparts","Randonnée équestre",""
48.4711514,-4.7561513,29840,"Lanildut","Plongée",""
47.8647098,-4.2223982,29120,"Pont-L'Abbé","Cyclotourisme#VTT","oui"
47.8505595,-4.1607813,29980,"Île-Tudy","Natation","oui"
47.76638,-3.55039,29360,"Clohars-Carnoët","Catamaran#Cerf volant#Dériveur#Voile",""
48.7139669,-3.811976,29630,"Plougasnou","Stand up paddle#Surf","oui"
47.8736195,-3.917337,29900,"Concarneau","","oui"
48.077047,-4.31549,29100,"Douarnenez","Bodyboard#Stand up paddle#Surf","oui"
47.9569462,-4.3744536,29710,"Pouldreuzic","","oui"
48.338763,-4.377116,29470,"Plougastel-Daoulas","Voile","oui"
48.3981677,-4.3579281,29470,"Plougastel-Daoulas","Kite-surf",""
47.8210418,-3.5879637,29350,"Moëlan-sur-Mer","Equitation",""
48.2680567,-4.6034527,29570,"Camaret-sur-Mer","",""
47.8492338,-3.5410682,29300,"Quimperlé","Equitation#Randonnée équestre",""
48.06243,-4.6630025,29770,"Cléden-Cap-Sizun","Randonnée pédestre","oui"
48.4159682,-4.2949708,29460,"Dirinon","Equitation",""
47.7960131,-4.286061,29730,"Guilvinec","",""
47.7964318,-4.2805494,29730,"Guilvinec","",""
48.3558831,-4.6784734,29280,"Locmaria-Plouzané","Bodyboard#Stand up paddle#Surf",""
48.2764127,-4.5966586,29570,"Camaret-sur-Mer","Randonnée pédestre",""
48.6763534,-3.8518881,29630,"Plougasnou","Bodyboard#Kayak de mer#Planche à voile#Stand up paddle#Voile",""
47.8907522,-4.0074414,29170,"Fouesnant","Roller","oui"
47.8900457,-4.0083375,29170,"Fouesnant","VTT","oui"
47.9365897,-4.1011366,29950,"Gouesnach","",""
47.8812787,-4.1154596,29950,"Bénodet","Voile#Voile habitable","non"
48.606321,-4.506607,29880,"Plouguerneau","","oui"
47.8716313,-4.1085023,29950,"Bénodet","Catamaran#Dériveur#Kayak de mer#Planche à voile#Stand up paddle#Voile",""
47.8743373,-4.1139688,29950,"Benodet","Kayak de mer#Stand up paddle","non"
47.8373171,-4.3502816,29120,"Plomeur","Surf",""
48.71778,-3.98809,29680,"Roscoff","Tennis","oui"
47.8690341,-3.9146318,29900,"Concarneau","Voile","oui"
47.9791211,-4.4304518,29710,"Plozévet","Gymnastique","oui"
48.5574141,-4.704932,29830,"Ploudalmézeau","Catamaran#Dériveur#Planche à voile#Voile",""
47.8432261,-3.8904044,29910,"Trégunc","Voile",""
47.8448023,-3.8906247,29910,"Trégunc","Aviron",""
48.3814149,-4.4889578,29200,"Brest","Aviron#Canoë kayak#Catamaran#Dériveur#Fun board#Kayak de mer#Planche à voile#Plongée#Stand up paddle#Surf#Voile",""
47.7865498,-3.5530701,29360,"Clohars-Carnoët","Parcours dans les arbres",""
48.0407797,-4.4906899,29790,"Pont-Croix","","oui"
48.389315,-4.498103,29200,"Brest","Escalade","oui"
47.8814442,-4.1154703,29950,"Bénodet","Voile",""
47.8223803,-3.794205,29920,"Névez","",""
48.683396,-3.654727,29241,"Locquirec","Char à voile",""
47.7964658,-3.8269748,29910,"Trégunc","Kayak de mer#Marche aquatique",""
47.7658923,-3.5560115,29360,"Clohars-carnoet","Marche aquatique#Natation",""
48.331386,-3.94534,29190,"Brasparts","Equitation#Randonnée équestre",""
48.511005,-4.764693,29840,"Porspoder","Cyclotourisme","oui"
48.524072,-4.697494,29830,"Plourin","Equitation",""
48.71873,-3.9693,29680,"Roscoff","Pêche#Pêche en mer","oui"
48.71873,-3.9693,29680,"Roscoff","Pêche","oui"
48.62184,-4.5622,29880,"Plouguerneau","Kayak de mer#Stand up paddle","oui"
48.626353,-4.513052,29880,"Plouguerneau","Arts martiaux",""
48.1537306,-4.1828605,29550,"Ploéven","","oui"
48.098366,-4.2083327,29180,"Locronan","Jeu de piste","oui"
48.190258,-4.082929,29150,"Châteaulin","Natation",""
48.684722,-3.985923,29250,"Saint-Pol-de-Léon","",""
48.406102,-4.498893,29200,"Brest","Stand up paddle",""
48.384089,-4.354318,29470,"Plougastel-Daoulas","Plongée",""
48.3391075,-4.7019398,29217,"Plougonvelin","Bouée tractée#Jetski",""
48.5971692,-4.6081571,29870,"Landeda","Cerf volant#Kite-surf",""
47.866915,-4.222298,29120,"Pont-L'Abbé","Jeu de piste","oui"
48.4220043,-4.7813238,29810,"Plouarzel","Pêche",""
48.56288,-3.82872,29600,"Plourin-lès-Morlaix","Sauvetage côtier",""
48.40051,-4.46691,29200,"Brest","Stand up paddle",""
47.84162,-4.28359,29120,"Plomeur","Surf",""
48.175223,-4.2924859,29550,"Plomodiern","Tir à l’arc","oui"
47.87662,-3.5532,29300,"Quimperlé","Canoë kayak#Hydrospeed#Kayak de mer#Rafting#Stand up paddle#Wave-ski",""
47.8964769,-3.9690915,29940,"La Forêt-Fouesnant","Bouée tractée#Kite-surf#Ski nautique#Wave-ski","oui"
48.11571,-4.27457,NA,"Plonévez-Porzay","Surf",""
47.83044,-4.133042,29750,"Loctudy","","oui"
48.6926207,-4.0555751,29250,"Santec","Stand up paddle#Surf","oui"
47.8399026,-4.3321579,29120,"Plomeur","Cyclotourisme#Stand up paddle#Surf#VTT","oui"
48.3911325,-4.4853366,29200,"Brest","",""
47.8962839,-3.9690315,29940,"La Forêt-Fouesnant","Bouée tractée#Kite-surf#Ski nautique#Wave-ski","oui"
47.91346,-4.37795,29720,"Plovan","Baptême de l'air#Pilotage aérien","oui"
47.8886,-3.98145,29170,"Fouesnant","Stand up paddle","oui"
47.903,-4.28264,29720,"Plonéour-Lanvern","","oui"
48.0131019,-4.4627252,29780,"Plouhinec","Equitation#Randonnée équestre",""
47.9082757,-3.9737343,29940,"La Forêt-Fouesnant","","oui"
48.4695367,-5.0544177,29242,"Ouessant","",""
47.988036,-4.425302,29710,"Plozévet","Jeu de piste#Randonnée pédestre","oui"
47.8965682,-3.9690101,29940,"La Forêt-Fouesnant","Yoga / Bien-être",""
48.23423,-4.52605,29160,"Crozon","Attelage#Equitation","oui"
48.413267,-4.019628,29450,"Sizun","Attelage",""
47.866915,-4.222298,29120,"Pont-L'Abbé","Yoga / Bien-être","oui"
47.9855,-4.42576,29710,"Plozévet","","oui"
48.59771,-4.56135,29870,"Landéda","Kite-surf",""
48.6694117,-3.9078258,29660,"Carantec","Marche aquatique",""
48.09467,-4.32458,29100,"Douarnenez","Canoë kayak#Stand up paddle",""
48.3395778,-4.7012085,29217,"Plougonvelin","Motonautisme#Pêche en mer",""
48.58588,-4.59149,29870,"Landéda","",""
48.60103,-4.59302,29870,"Landéda","Yoga / Bien-être",""
48.0274988,-4.550959,29770,"Audierne","",""
48.6694117,-3.9078258,29660,"Carantec","Multisport",""
48.6871906,-3.6797037,29241,"Locquirec","Stand up paddle","oui"
48.38754,-4.48119,29200,"Brest","Cyclotourisme#VTT",""
48.2797071,-3.6004513,29270,"Carhaix-Plouguer","",""
48.31417,-4.54932,29570,"Roscanvel","Cyclotourisme",""
48.279463,-4.2683163,29590,"Rosnoën","",""
48.4353718,-4.7756866,29810,"Plouarzel","",""
48.62781,-4.54286,29880,"Plouguerneau","Kayak de mer","oui"
47.8964769,-3.9690915,29940,"La Forêt-Fouesnant","Bouée tractée","oui"
48.22709,-4.50389,29160,"Crozon","Escalade",""
48.096087,-4.3453761,29100,"Douarnenez","",""
48.57278,-4.62265,29830,"Saint-Pabu","Pêche#Randonnée pédestre","oui"
47.8647036,-4.2226493,29120,"Pont-L'Abbé","","oui"
48.47808,-4.67293,29810,"Brélès","Tir à l’arc",""
48.42568,-4.63512,29290,"Saint-Renan","Gymnastique",""
48.19049,-4.05992,29150,"Saint-Coulitz","Equitation#Randonnée équestre",""
48.17984,-4.23164,29550,"Plomodiern","Marche aquatique","oui"
48.62821,-4.53395,29880,"Plouguerneau","Kite-surf",""
48.6202238,-3.5409324,22420,"Lanvellec","",""
48.20351,-4.52903,29160,"Crozon","Randonnée pédestre",""
48.4713545,-4.761153,29840,"Lanildut","",""
48.167093,-4.2923545,29550,"Plomodiern","Kayak de mer#Surf",""
48.02369,-4.53993,29770,"Audierne","",""
48.45061,-4.24999,29800,"Landerneau","",""
47.85535,-3.85214,29910,"Trégunc","Voile#Voile Croisière",""
48.341425,-4.718711,29217,"Plougonvelin","Multisport#Stand up paddle#Surf#Vol à voile",""
48.27841,-4.56741,29570,"Camaret-sur-Mer","",""
47.8963092,-3.9679373,29940,"La Forêt-Fouesnant","Kite-surf",""
48.1724184,-4.2933443,29550,"Plomodiern","Surf",""
48.4148966,-4.4925942,29200,"BREST","",""
48.3898509,-4.4407557,29200,"Brest","Jetski",""
48.55737,-4.70194,29830,"Ploudalmézeau","Marche aquatique",""
48.59771,-4.56135,29870,"Landéda","",""
48.27992,-4.27676,29590,"Rosnoën","Kayak de mer",""
48.5057,-4.4962,29860,"Bourg-Blanc","Equitation",""
48.23987,-4.44561,29160,"Crozon","Canoë kayak#Char à voile#Kayak de mer#Surf#Voile",""
47.8988536,-3.9735289,29940,"La Forêt-Fouesnant","Catamaran",""
48.59323,-4.59054,29870,"Landéda","",""
48.541462,-4.657761,29830,"Ploudalmézeau","Cyclotourisme","oui"
47.88138,-4.11541,29950,"Bénodet","Voile",""
47.866915,-4.222298,29120,"Pont-L'Abbé","Yoga / Bien-être","oui"
47.76724,-3.55642,29360,"Clohars-Carnoët","",""
47.88162,-4.11026,29950,"Bénodet","Gymnastique#Yoga / Bien-être",""
48.50485,-3.87551,29410,"Pleyber-Christ","Pêche#Pêche en eau douce#Pêche en mer",""
47.892398,-4.334536,29720,"Tréguennec","Natation#Sauvetage côtier","oui"
48.45019,-4.24981,29800,"Landerneau","VTT",""
47.9046952,-3.9161235,29900,"Concarneau","",""
48.219216,-4.162878,29150,"Dinéault","",""
47.8991989,-3.9736055,29940,"La Forêt-Fouesnant","Plongée#Stand up paddle#Voile","oui"
47.87519,-4.10574,29950,"Bénodet","Jeu de piste",""
47.89894,-3.96589,29940,"La Forêt-Fouesnant","Catamaran",""
47.8188656,-4.3772802,29760,"Penmarch","","oui"
48.015053,-4.539026,29770,"Audierne","",""
48.43359,-4.73004,29810,"Plouarzel","",""
48.1538503,-4.2743687,29550,"Plomodiern","Randonnée équestre",""
48.257368,-4.6206323,29570,"Camaret-sur-Mer","Escalade",""
48.3152009,-4.2861632,29460,"Logonna-Daoulas","",""
48.42655,-4.61817,29290,"Saint-Renan","",""
47.8382785,-4.3410535,29120,"Plomeur","Surf","oui"
48.57171,-4.32344,29260,"Lesneven","",""
48.686185,-3.661973,29241,"Locquirec","",""
47.9089008,-3.9492388,29940,"La Forêt-Fouesnant","Yoga / Bien-être",""
47.89825,-4.28332,29720,"Plonéour-Lanvern","Yoga / Bien-être",""
48.7051411,-3.9990674,29680,"Roscoff","Voile",""
48.39044,-4.48656,29200,"Brest","Randonnée pédestre","oui"
47.87429,-4.1104,29950,"Bénodet","",""
47.8379681,-4.3313011,29120,"Plomeur","Surf","oui"
48.56846,-3.82423,29600,"Morlaix","Escalade",""
48.0408264,-4.4892043,29790,"Pont-Croix","Jeu de piste","oui"
48.6063037,-1.7084534,35120,"Cherrueix","Char à voile#Natation","oui"
48.4915806,-1.7274054,35120,"Epiniac","","oui"
48.328352,-1.64048,35440,"Feins","Aviron",""
48.3324228,-1.6375232,35440,"Feins","Equitation",""
48.3393551,-1.6363204,35440,"Feins","Canoë kayak#Catamaran#Dériveur#Planche à voile#Stand up paddle#Voile","oui"
47.7316565,-1.7658917,35390,"Grand-Fougeray","Equitation",""
47.9781235,-1.7695165,35580,"Guichen","Centres équestres et poneys clubs#Equitation#Randonnée équestre","oui"
48.626198,-1.936203,35350,"La Gouesnière","Centres équestres et poneys clubs#Equitation#Randonnée équestre",""
48.1628974,-1.9652325,35137,"La Nouaye","Equitation",""
47.831395,-1.317591,35640,"Martigné-Ferchaud","Beach Volley#Canoë kayak#Geocaching#Pêche#Randonnée équestre#Randonnée pédestre#Stand up paddle#Tir à l’arc#VTT",""
48.2989938,-1.4318478,35140,"Mézières-sur-Couesnon","Canoë kayak#Escalade#Stand up paddle#Tir à l’arc#VTT",""
48.294195,-1.432416,35140,"Mézières-sur-Couesnon","Escalade",""
48.249411,-1.73373,35520,"Montreuil-le-Gast","Centres équestres et poneys clubs#Equitation",""
48.523739,-1.8511889,35540,"Plerguer","Centres équestres et poneys clubs#Equitation",""
48.576511,-2.0713573,35730,"Pleurtuit","Equitation",""
47.675168,-2.067589,35600,"Redon","Equitation",""
48.6319149,-1.9815769,35400,"Saint-Malo","Escalade",""
48.649221,-2.0184218,35400,"Saint-Malo","Plongée","oui"
48.5676572,-1.9735147,35430,"Saint-Suliac","Fun board#Kayak de mer#Marche aquatique#Planche à voile#Voile","oui"
48.3109029,-1.8230384,35190,"Tinténiac","Centres équestres et poneys clubs#Equitation",""
48.6065101,-2.0316974,35780,"La Richardais","Aviron#Canoë kayak#Dériveur#Kayak de mer#Stand up paddle#Voile",""
48.631901,-2.051094,35800,"Dinard","Catamaran#Dériveur#Kayak de mer#Stand up paddle#Voile",""
48.7018472,-1.8495679,35260,"Cancale","Canoë kayak#Kayak de mer#Planche à voile#Stand up paddle#Voile","oui"
48.6187553,-2.0533251,35800,"Dinard","Centres équestres et poneys clubs#Equitation",""
48.4292247,-1.5738001,35560,"Bazouges-la-Pérouse","Parcours dans les arbres",""
48.1010297,-2.0306227,35750,"Iffendic","Parcours dans les arbres","oui"
48.1292959,-2.033727,35750,"Iffendic","",""
48.619354,-2.132691,35800,"Saint-Briac-sur-Mer","",""
48.6179855,-2.1322762,35800,"Saint-Briac-sur-Mer","",""
48.0962418,-1.661091,35200,"Rennes","",""
47.8369278,-1.4497236,35134,"Thourie","",""
48.297283,-1.520476,35490,"Gahard","Equitation",""
48.6357488,-2.1221406,35800,"Saint-Briac-sur-Mer","Bodyboard#Marche aquatique#Stand up paddle#Surf#Yoga / Bien-être",""
48.3936373,-1.1635927,35300,"Fougères","Geocaching",""
48.6939969,-1.8808067,35260,"Cancale","Geocaching",""
47.9365779,-1.4030016,35150,"Essé","Geocaching",""
48.6319149,-1.9815769,35400,"Saint-Malo","",""
48.6358014,-2.05513,35800,"Dinard","Bodyboard#Fun board#Kayak de mer#Planche à voile#Stand up paddle#Voile",""
48.4911826,-1.6795932,35120,"Epiniac","Randonnée pédestre","oui"
48.6492559,-2.0260042,35400,"Saint-Malo","",""
48.61384,-2.0500702,35780,"La Richardais","Pêche sous-marine#Plongée",""
48.6714856,-1.851635,35260,"Cancale","Geocaching",""
48.6755416,-1.8518495,35260,"Cancale","Geocaching",""
48.410783,-1.7487,35270,"Combourg","Geocaching",""
48.6342648,-2.0548782,35800,"Dinard","Geocaching","oui"
48.305403,-1.7933763,35630,"Hédé-Bazouges","Geocaching",""
47.94291,-1.2332,35130,"La Guerche-de-Bretagne","Geocaching",""
47.946273,-1.3607448,35240,"Marcillé-Robert","Geocaching",""
47.6510082,-2.084608,35600,"Redon","Geocaching",""
48.259985,-1.399275,35140,"Saint-Aubin-du-Cormier","Geocaching",""
48.6514795,-2.0154914,35400,"Saint-Malo","Natation#Plongée",""
48.5506221,-1.7564122,35120,"Dol-de-Bretagne","",""
48.1005245,-2.0313119,35750,"Iffendic","Randonnée pédestre",""
48.5898642,-2.0751147,35730,"Pleurtuit","Baptême de l'air#Pilotage aérien#Promenade aérienne",""
47.8427698,-1.6826622,35470,"Bain-de-Bretagne","Geocaching","oui"
48.1005601,-2.0315579,35750,"Iffendic","Randonnée pédestre",""
47.824796,-1.807864,35480,"Guipry-Messac","Geocaching","oui"
47.824796,-1.807864,35480,"Guipry-Messac","Geocaching","oui"
47.9291489,-1.7410571,35890,"Bourg-des-Comptes","Geocaching",""
48.005756,-1.477655,35150,"Amanlis","Geocaching",""
48.179645,-1.943328,35630,"Les Iffs","Geocaching",""
48.2071008,-2.1397816,35290,"Le Crouais","Geocaching",""
48.093523,-2.100714,35750,"Saint-Malon-sur-Mel","Geocaching",""
47.824796,-1.8078639,35480,"Guipry-Messac","Geocaching",""
48.634761,-2.108016,35800,"Saint-Lunaire","Geocaching","oui"
47.8667893,-1.8917513,35550,"Lohéac","Geocaching",""
48.328863,-1.83519,35190,"Tinténiac","Geocaching",""
47.650742,-2.0839379,35600,"Redon","Randonnée pédestre","oui"
48.5513643,-1.7518974,35120,"Dol-de-Bretagne","",""
48.0018836,-1.7740963,35580,"Guichen","Canoë kayak",""
48.6765318,-1.8514679,35260,"Cancale","",""
48.1881621,-2.192177,35290,"Saint-Méen-le-Grand","Geocaching","oui"
48.134473,-2.0436619,35750,"Iffendic","",""
47.7604827,-1.9808896,35550,"Saint-Just","Equitation",""
48.6715507,-1.8530633,35260,"Cancale","",""
48.6710851,-1.8551835,35260,"Cancale","",""
47.704633,-2.023645,35600,"Sainte-Marie","",""
47.65236,-2.08601,35600,"Redon","Yoga / Bien-être",""
48.6319149,-1.9815769,35400,"Saint-Malo","Cyclotourisme#Multisport#VTT",""
48.6517222,-2.0234407,35400,"Saint-Malo","Geocaching",""
48.569268,-1.768138,35120,"Mont-Dol","Geocaching",""
47.651418,-2.0843979,35550,"Saint-Just","",""
47.651418,-2.0843979,35660,"Langon","",""
48.1898911,-2.1871851,35290,"Saint-Méen-le-Grand","",""
48.4160093,-1.5214762,35560,"Bazouges-la-Pérouse","Baptême de l'air#ULM","oui"
48.459476,-1.364517,35460,"Les Portes du Coglais","Centres équestres et poneys clubs#Equitation",""
48.602092,-1.774314,35960,"Le Vivier-sur-Mer","Randonnée pédestre",""
48.6168554,-2.1507424,22770,"Lancieux","Pêche",""
48.070252,-2.007752,35750,"Iffendic","Geocaching#Randonnée pédestre",""
47.6515286,-2.0848655,35600,"Redon","Geocaching",""
48.4042543,-1.2627863,35133,"Saint-Germain-en-Coglès","Geocaching",""
48.6605019,-1.9900459,35400,"Saint-Malo","",""
48.6720612,-1.8620101,35260,"Cancale","Parcours dans les arbres","oui"
48.67545,-1.911221,35350,"Saint-Coulomb","Pêche",""
48.6448028,-2.0065345,35400,"Saint-Malo","Arts martiaux#Badminton#Multisport#Tennis","oui"
48.6635993,-1.9899219,35400,"Saint-Malo","Bodyboard#Stand up paddle#Surf","oui"
